{"type": "FeatureCollection", "features": [{"id": "99", "type": "Feature", "properties": {"ELE_1": null, "FIXME_1": null, "NAME_1": null, "comment": null, "descriptio": null, "ele": null, "fixme": null, "name": "Cusco", "note": null, "osm_id": 1237030089, "place": "region", "population": null, "source": "GNS"}, "geometry": {"type": "Point", "coordinates": [-71.9906371, -13.5542811]}}, {"id": "2446", "type": "Feature", "properties": {"ELE_1": null, "FIXME_1": null, "NAME_1": null, "comment": null, "descriptio": null, "ele": null, "fixme": null, "name": "Calca", "note": null, "osm_id": 7773252719, "place": "village", "population": null, "source": null}, "geometry": {"type": "Point", "coordinates": [-71.9527592, -13.3293469]}}, {"id": "2168", "type": "Feature", "properties": {"ELE_1": null, "FIXME_1": null, "NAME_1": null, "comment": null, "descriptio": null, "ele": null, "fixme": null, "name": "Mollepata", "note": null, "osm_id": 7703023920, "place": "hamlet", "population": null, "source": null}, "geometry": {"type": "Point", "coordinates": [-72.5254995, -13.5105772]}}, {"id": "2169", "type": "Feature", "properties": {"ELE_1": null, "FIXME_1": null, "NAME_1": null, "comment": null, "descriptio": null, "ele": null, "fixme": null, "name": "Mollepata", "note": null, "osm_id": 7703023921, "place": "hamlet", "population": null, "source": null}, "geometry": {"type": "Point", "coordinates": [-72.5313279, -13.5129348]}}, {"id": "2170", "type": "Feature", "properties": {"ELE_1": null, "FIXME_1": null, "NAME_1": null, "comment": null, "descriptio": null, "ele": null, "fixme": null, "name": "Mollepata", "note": null, "osm_id": 7703023922, "place": "hamlet", "population": null, "source": null}, "geometry": {"type": "Point", "coordinates": [-72.5216344, -13.512082]}}, {"id": "2171", "type": "Feature", "properties": {"ELE_1": null, "FIXME_1": null, "NAME_1": null, "comment": null, "descriptio": null, "ele": null, "fixme": null, "name": "Mollepata", "note": null, "osm_id": 7703023923, "place": "hamlet", "population": null, "source": null}, "geometry": {"type": "Point", "coordinates": [-72.5288951, -13.5145621]}}, {"id": "2338", "type": "Feature", "properties": {"ELE_1": null, "FIXME_1": null, "NAME_1": null, "comment": null, "descriptio": null, "ele": null, "fixme": null, "name": "Ancahuasi", "note": null, "osm_id": 7722037289, "place": "hamlet", "population": null, "source": null}, "geometry": {"type": "Point", "coordinates": [-72.3017415, -13.45683]}}, {"id": "0", "type": "Feature", "properties": {"ELE_1": null, "FIXME_1": null, "NAME_1": null, "comment": null, "descriptio": null, "ele": 3400.0, "fixme": null, "name": "Cusco", "note": null, "osm_id": 59115290, "place": "city", "population": 420137.0, "source": null}, "geometry": {"type": "Point", "coordinates": [-71.9785356, -13.5170887]}}, {"id": "191", "type": "Feature", "properties": {"ELE_1": null, "FIXME_1": null, "NAME_1": null, "comment": null, "descriptio": null, "ele": 3215.0, "fixme": null, "name": "Acomayo", "note": null, "osm_id": 2317137705, "place": "town", "population": null, "source": "bing; MTC"}, "geometry": {"type": "Point", "coordinates": [-71.6834556, -13.9192017]}}, {"id": "2333", "type": "Feature", "properties": {"ELE_1": null, "FIXME_1": null, "NAME_1": null, "comment": null, "descriptio": null, "ele": null, "fixme": null, "name": "Zurite", "note": null, "osm_id": 7722024284, "place": "hamlet", "population": null, "source": null}, "geometry": {"type": "Point", "coordinates": [-72.2607333, -13.4561189]}}, {"id": "2334", "type": "Feature", "properties": {"ELE_1": null, "FIXME_1": null, "NAME_1": null, "comment": null, "descriptio": null, "ele": null, "fixme": null, "name": "Zurite", "note": null, "osm_id": 7722037285, "place": "hamlet", "population": null, "source": null}, "geometry": {"type": "Point", "coordinates": [-72.2574073, -13.4560641]}}, {"id": "2336", "type": "Feature", "properties": {"ELE_1": null, "FIXME_1": null, "NAME_1": null, "comment": null, "descriptio": null, "ele": null, "fixme": null, "name": "Zurite", "note": null, "osm_id": 7722037287, "place": "hamlet", "population": null, "source": null}, "geometry": {"type": "Point", "coordinates": [-72.2557817, -13.4535187]}}, {"id": "101", "type": "Feature", "properties": {"ELE_1": null, "FIXME_1": null, "NAME_1": null, "comment": null, "descriptio": null, "ele": null, "fixme": null, "name": "Acomayo", "note": null, "osm_id": 1237030094, "place": "region", "population": null, "source": "GNS"}, "geometry": {"type": "Point", "coordinates": [-71.666667, -13.916667]}}, {"id": "2371", "type": "Feature", "properties": {"ELE_1": null, "FIXME_1": null, "NAME_1": null, "comment": null, "descriptio": null, "ele": null, "fixme": null, "name": "Ayre", "note": null, "osm_id": 7725019799, "place": "isolated_dwelling", "population": null, "source": null}, "geometry": {"type": "Point", "coordinates": [-71.5732698, -13.4202276]}}, {"id": "2373", "type": "Feature", "properties": {"ELE_1": null, "FIXME_1": null, "NAME_1": null, "comment": null, "descriptio": null, "ele": null, "fixme": null, "name": "K'ucya", "note": null, "osm_id": 7725019801, "place": "isolated_dwelling", "population": null, "source": null}, "geometry": {"type": "Point", "coordinates": [-71.616855, -13.4128452]}}, {"id": "2451", "type": "Feature", "properties": {"ELE_1": null, "FIXME_1": null, "NAME_1": null, "comment": null, "descriptio": null, "ele": null, "fixme": "Please check the name correctness", "name": "Corao", "note": null, "osm_id": 7773414783, "place": "hamlet", "population": null, "source": null}, "geometry": {"type": "Point", "coordinates": [-71.9204027, -13.469922]}}, {"id": "2165", "type": "Feature", "properties": {"ELE_1": null, "FIXME_1": null, "NAME_1": null, "comment": null, "descriptio": null, "ele": null, "fixme": null, "name": "Tip\u00f3n", "note": null, "osm_id": 7702927569, "place": "village", "population": null, "source": null}, "geometry": {"type": "Point", "coordinates": [-71.7843193, -13.5710825]}}, {"id": "2158", "type": "Feature", "properties": {"ELE_1": null, "FIXME_1": null, "NAME_1": null, "comment": null, "descriptio": null, "ele": null, "fixme": null, "name": "Huancarani", "note": null, "osm_id": 7702867883, "place": "hamlet", "population": null, "source": null}, "geometry": {"type": "Point", "coordinates": [-71.6563699, -13.5051994]}}, {"id": "1855", "type": "Feature", "properties": {"ELE_1": null, "FIXME_1": null, "NAME_1": null, "comment": null, "descriptio": null, "ele": null, "fixme": null, "name": "Accocunca", "note": null, "osm_id": 7518540630, "place": "village", "population": null, "source": null}, "geometry": {"type": "Point", "coordinates": [-71.2503866, -14.7744533]}}, {"id": "2327", "type": "Feature", "properties": {"ELE_1": null, "FIXME_1": null, "NAME_1": null, "comment": null, "descriptio": null, "ele": null, "fixme": "Two points with different names on same place", "name": "Mullakas", "note": null, "osm_id": 7721976157, "place": "hamlet", "population": null, "source": null}, "geometry": {"type": "Point", "coordinates": [-72.1971, -13.3637]}}, {"id": "2326", "type": "Feature", "properties": {"ELE_1": null, "FIXME_1": null, "NAME_1": null, "comment": null, "descriptio": null, "ele": null, "fixme": "Two points with different names on same place", "name": "Misminay", "note": null, "osm_id": 7721976155, "place": "hamlet", "population": null, "source": null}, "geometry": {"type": "Point", "coordinates": [-72.1964, -13.3633]}}, {"id": "1941", "type": "Feature", "properties": {"ELE_1": null, "FIXME_1": null, "NAME_1": null, "comment": null, "descriptio": null, "ele": null, "fixme": null, "name": "Sullca", "note": null, "osm_id": 7519637486, "place": "village", "population": null, "source": null}, "geometry": {"type": "Point", "coordinates": [-71.200088, -14.3557208]}}, {"id": "2388", "type": "Feature", "properties": {"ELE_1": null, "FIXME_1": null, "NAME_1": null, "comment": null, "descriptio": null, "ele": null, "fixme": "Please, check the position of this place", "name": "Tanccac", "note": null, "osm_id": 7741458251, "place": "hamlet", "population": null, "source": null}, "geometry": {"type": "Point", "coordinates": [-72.3137333, -13.2249164]}}, {"id": "2042", "type": "Feature", "properties": {"ELE_1": null, "FIXME_1": null, "NAME_1": null, "comment": null, "descriptio": null, "ele": null, "fixme": null, "name": "Antapallpa", "note": null, "osm_id": 7656348775, "place": "village", "population": null, "source": null}, "geometry": {"type": "Point", "coordinates": [-71.722431, -14.1261321]}}, {"id": "2400", "type": "Feature", "properties": {"ELE_1": null, "FIXME_1": null, "NAME_1": null, "comment": null, "descriptio": null, "ele": null, "fixme": null, "name": "Mika", "note": null, "osm_id": 7746992995, "place": "village", "population": null, "source": null}, "geometry": {"type": "Point", "coordinates": [-71.6488337, -13.4135672]}}, {"id": "1805", "type": "Feature", "properties": {"ELE_1": null, "FIXME_1": null, "NAME_1": null, "comment": null, "descriptio": null, "ele": null, "fixme": "Please, check the position and the name of this place", "name": "Arahuara", "note": null, "osm_id": 7515916293, "place": "hamlet", "population": null, "source": null}, "geometry": {"type": "Point", "coordinates": [-71.6697763, -13.7377124]}}, {"id": "2129", "type": "Feature", "properties": {"ELE_1": null, "FIXME_1": null, "NAME_1": null, "comment": null, "descriptio": null, "ele": null, "fixme": null, "name": "Aravito", "note": null, "osm_id": 7695332794, "place": "village", "population": null, "source": null}, "geometry": {"type": "Point", "coordinates": [-72.1690029, -13.7125658]}}, {"id": "2393", "type": "Feature", "properties": {"ELE_1": null, "FIXME_1": null, "NAME_1": null, "comment": null, "descriptio": null, "ele": null, "fixme": "Please check the name and position correctness", "name": "Cachiccata", "note": null, "osm_id": 7746396981, "place": "isolated_dwelling", "population": null, "source": null}, "geometry": {"type": "Point", "coordinates": [-72.2942061, -13.2519]}}, {"id": "549", "type": "Feature", "properties": {"ELE_1": null, "FIXME_1": null, "NAME_1": null, "comment": null, "descriptio": null, "ele": null, "fixme": null, "name": "Huamanpata", "note": null, "osm_id": 3351780047, "place": "village", "population": null, "source": null}, "geometry": {"type": "Point", "coordinates": [-72.5750557, -13.5182139]}}, {"id": "548", "type": "Feature", "properties": {"ELE_1": null, "FIXME_1": null, "NAME_1": null, "comment": null, "descriptio": null, "ele": null, "fixme": null, "name": "Huamanpata", "note": null, "osm_id": 3351779837, "place": "hamlet", "population": null, "source": null}, "geometry": {"type": "Point", "coordinates": [-72.58106, -13.5142034]}}, {"id": "670", "type": "Feature", "properties": {"ELE_1": null, "FIXME_1": null, "NAME_1": null, "comment": null, "descriptio": null, "ele": 95.0, "fixme": "Two adjancent villages/towns with the same name", "name": "Palestina Baja", "note": null, "osm_id": 3505776962, "place": "village", "population": 950.0, "source": "bing;gps;DEVIDA"}, "geometry": {"type": "Point", "coordinates": [-73.5800163, -12.8357442]}}, {"id": "668", "type": "Feature", "properties": {"ELE_1": null, "FIXME_1": null, "NAME_1": null, "comment": null, "descriptio": null, "ele": null, "fixme": "Two adjancent villages/towns with the same name", "name": "Palestina Baja", "note": null, "osm_id": 3505776745, "place": "village", "population": null, "source": "bing"}, "geometry": {"type": "Point", "coordinates": [-73.5774865, -12.8294385]}}, {"id": "2269", "type": "Feature", "properties": {"ELE_1": null, "FIXME_1": null, "NAME_1": null, "comment": null, "descriptio": null, "ele": null, "fixme": "Please check the name correctness", "name": "Dormenduyoc", "note": null, "osm_id": 7717032329, "place": "hamlet", "population": null, "source": null}, "geometry": {"type": "Point", "coordinates": [-72.6324227, -12.7848105]}}, {"id": "2346", "type": "Feature", "properties": {"ELE_1": null, "FIXME_1": null, "NAME_1": null, "comment": null, "descriptio": null, "ele": null, "fixme": null, "name": "Manitea Baja", "note": null, "osm_id": 7724276680, "place": "hamlet", "population": null, "source": null}, "geometry": {"type": "Point", "coordinates": [-73.6504268, -12.7399744]}}, {"id": "2213", "type": "Feature", "properties": {"ELE_1": null, "FIXME_1": null, "NAME_1": null, "comment": null, "descriptio": null, "ele": null, "fixme": null, "name": "Ochigoteni", "note": null, "osm_id": 7711563597, "place": "hamlet", "population": null, "source": null}, "geometry": {"type": "Point", "coordinates": [-73.1226388, -12.6377518]}}, {"id": "2097", "type": "Feature", "properties": {"ELE_1": null, "FIXME_1": null, "NAME_1": null, "comment": null, "descriptio": null, "ele": null, "fixme": null, "name": "Ocefina", "note": null, "osm_id": 7690525477, "place": "village", "population": null, "source": null}, "geometry": {"type": "Point", "coordinates": [-71.3513596, -13.9772728]}}, {"id": "1699", "type": "Feature", "properties": {"ELE_1": null, "FIXME_1": null, "NAME_1": null, "comment": null, "descriptio": null, "ele": null, "fixme": null, "name": "Mantalo", "note": null, "osm_id": 7450745813, "place": "isolated_dwelling", "population": null, "source": null}, "geometry": {"type": "Point", "coordinates": [-72.9569435, -12.3260723]}}, {"id": "1826", "type": "Feature", "properties": {"ELE_1": null, "FIXME_1": null, "NAME_1": null, "comment": null, "descriptio": null, "ele": null, "fixme": null, "name": "Upis", "note": null, "osm_id": 7515973768, "place": "village", "population": null, "source": null}, "geometry": {"type": "Point", "coordinates": [-71.3082, -13.7049938]}}, {"id": "1848", "type": "Feature", "properties": {"ELE_1": null, "FIXME_1": null, "NAME_1": null, "comment": null, "descriptio": null, "ele": null, "fixme": null, "name": "Urinsaya", "note": null, "osm_id": 7518501528, "place": "village", "population": null, "source": null}, "geometry": {"type": "Point", "coordinates": [-71.6332966, -14.735751]}}, {"id": "1905", "type": "Feature", "properties": {"ELE_1": null, "FIXME_1": null, "NAME_1": null, "comment": null, "descriptio": null, "ele": null, "fixme": null, "name": "Merques", "note": null, "osm_id": 7518759734, "place": "hamlet", "population": null, "source": null}, "geometry": {"type": "Point", "coordinates": [-71.8379896, -14.4368116]}}, {"id": "2397", "type": "Feature", "properties": {"ELE_1": null, "FIXME_1": null, "NAME_1": null, "comment": null, "descriptio": null, "ele": null, "fixme": "Please, check the position of this place", "name": "Sayllapata", "note": null, "osm_id": 7746992992, "place": "hamlet", "population": null, "source": null}, "geometry": {"type": "Point", "coordinates": [-71.6506852, -13.4230854]}}, {"id": "1784", "type": "Feature", "properties": {"ELE_1": null, "FIXME_1": null, "NAME_1": null, "comment": null, "descriptio": null, "ele": null, "fixme": null, "name": "Santa Ines", "note": null, "osm_id": 7487289549, "place": "hamlet", "population": null, "source": null}, "geometry": {"type": "Point", "coordinates": [-73.9334607, -12.296628]}}, {"id": "2159", "type": "Feature", "properties": {"ELE_1": null, "FIXME_1": null, "NAME_1": null, "comment": null, "descriptio": null, "ele": null, "fixme": null, "name": "Lloqueta", "note": null, "osm_id": 7702867884, "place": "hamlet", "population": null, "source": null}, "geometry": {"type": "Point", "coordinates": [-71.639658, -13.5788932]}}, {"id": "2342", "type": "Feature", "properties": {"ELE_1": null, "FIXME_1": null, "NAME_1": null, "comment": null, "descriptio": null, "ele": null, "fixme": null, "name": "Kata\u00f1aray", "note": null, "osm_id": 7722037293, "place": "hamlet", "population": null, "source": null}, "geometry": {"type": "Point", "coordinates": [-72.2704866, -13.4734655]}}, {"id": "2221", "type": "Feature", "properties": {"ELE_1": null, "FIXME_1": null, "NAME_1": null, "comment": null, "descriptio": null, "ele": null, "fixme": null, "name": "Ayavire", "note": null, "osm_id": 7711759702, "place": "village", "population": null, "source": null}, "geometry": {"type": "Point", "coordinates": [-72.3937399, -13.4568444]}}, {"id": "2383", "type": "Feature", "properties": {"ELE_1": null, "FIXME_1": null, "NAME_1": null, "comment": null, "descriptio": null, "ele": null, "fixme": null, "name": "Limonpata", "note": null, "osm_id": 7728753688, "place": "hamlet", "population": null, "source": null}, "geometry": {"type": "Point", "coordinates": [-72.6717626, -13.0277942]}}, {"id": "2144", "type": "Feature", "properties": {"ELE_1": null, "FIXME_1": null, "NAME_1": null, "comment": null, "descriptio": null, "ele": null, "fixme": null, "name": "Monte Carmelo", "note": null, "osm_id": 7699751921, "place": "hamlet", "population": null, "source": null}, "geometry": {"type": "Point", "coordinates": [-72.9911179, -12.4678326]}}, {"id": "2167", "type": "Feature", "properties": {"ELE_1": null, "FIXME_1": null, "NAME_1": null, "comment": null, "descriptio": null, "ele": null, "fixme": null, "name": "Vicho", "note": null, "osm_id": 7702927571, "place": "village", "population": null, "source": null}, "geometry": {"type": "Point", "coordinates": [-71.7373901, -13.5473146]}}, {"id": "2166", "type": "Feature", "properties": {"ELE_1": null, "FIXME_1": null, "NAME_1": null, "comment": null, "descriptio": null, "ele": null, "fixme": null, "name": "Pacor", "note": null, "osm_id": 7702927570, "place": "village", "population": null, "source": null}, "geometry": {"type": "Point", "coordinates": [-71.7446191, -13.5217742]}}, {"id": "2249", "type": "Feature", "properties": {"ELE_1": null, "FIXME_1": null, "NAME_1": null, "comment": null, "descriptio": null, "ele": null, "fixme": "Please, check the position of this place", "name": "Huertapata", "note": null, "osm_id": 7713945152, "place": "isolated_dwelling", "population": null, "source": null}, "geometry": {"type": "Point", "coordinates": [-72.5107772, -12.6704444]}}, {"id": "1977", "type": "Feature", "properties": {"ELE_1": null, "FIXME_1": null, "NAME_1": null, "comment": null, "descriptio": null, "ele": null, "fixme": "Please, check the position and the name of this place", "name": "Jilayhua", "note": null, "osm_id": 7519762733, "place": "village", "population": null, "source": null}, "geometry": {"type": "Point", "coordinates": [-71.4403659, -14.1911198]}}, {"id": "2000", "type": "Feature", "properties": {"ELE_1": null, "FIXME_1": null, "NAME_1": null, "comment": null, "descriptio": null, "ele": null, "fixme": null, "name": "Colliri Grande", "note": null, "osm_id": 7519797575, "place": "village", "population": null, "source": null}, "geometry": {"type": "Point", "coordinates": [-71.4562403, -14.2085928]}}, {"id": "1209", "type": "Feature", "properties": {"ELE_1": null, "FIXME_1": null, "NAME_1": null, "comment": null, "descriptio": null, "ele": null, "fixme": "name", "name": "Mantalo", "note": null, "osm_id": 4947118707, "place": "village", "population": null, "source": "bing"}, "geometry": {"type": "Point", "coordinates": [-72.8713415, -12.3389053]}}, {"id": "1329", "type": "Feature", "properties": {"ELE_1": null, "FIXME_1": null, "NAME_1": null, "comment": null, "descriptio": null, "ele": 732.0, "fixme": null, "name": "Santa Ines", "note": null, "osm_id": 5499293989, "place": "hamlet", "population": 750.0, "source": null}, "geometry": {"type": "Point", "coordinates": [-73.9333238, -12.2988575]}}, {"id": "508", "type": "Feature", "properties": {"ELE_1": null, "FIXME_1": null, "NAME_1": null, "comment": null, "descriptio": null, "ele": null, "fixme": null, "name": "Arahuara", "note": null, "osm_id": 3101784129, "place": "hamlet", "population": null, "source": null}, "geometry": {"type": "Point", "coordinates": [-71.6698256, -13.737641]}}, {"id": "1275", "type": "Feature", "properties": {"ELE_1": null, "FIXME_1": null, "NAME_1": null, "comment": null, "descriptio": null, "ele": null, "fixme": null, "name": "Upis", "note": null, "osm_id": 5149305486, "place": "hamlet", "population": null, "source": null}, "geometry": {"type": "Point", "coordinates": [-71.2750637, -13.7521601]}}, {"id": "1283", "type": "Feature", "properties": {"ELE_1": null, "FIXME_1": null, "NAME_1": null, "comment": null, "descriptio": null, "ele": null, "fixme": null, "name": "Urinsaya", "note": null, "osm_id": 5157929740, "place": "town", "population": null, "source": "bing;MTC"}, "geometry": {"type": "Point", "coordinates": [-71.6284817, -14.7350107]}}, {"id": "408", "type": "Feature", "properties": {"ELE_1": null, "FIXME_1": null, "NAME_1": null, "comment": null, "descriptio": null, "ele": 3984.0, "fixme": null, "name": "Accocunca", "note": null, "osm_id": 3015382055, "place": "village", "population": null, "source": "bing; MTC"}, "geometry": {"type": "Point", "coordinates": [-71.2515769, -14.7779443]}}, {"id": "1289", "type": "Feature", "properties": {"ELE_1": null, "FIXME_1": null, "NAME_1": null, "comment": null, "descriptio": null, "ele": null, "fixme": null, "name": "Merques", "note": null, "osm_id": 5177362329, "place": "isolated_dwelling", "population": null, "source": null}, "geometry": {"type": "Point", "coordinates": [-71.8367124, -14.4317611]}}, {"id": "429", "type": "Feature", "properties": {"ELE_1": null, "FIXME_1": null, "NAME_1": null, "comment": null, "descriptio": null, "ele": null, "fixme": null, "name": "Sullca", "note": null, "osm_id": 3039438234, "place": "hamlet", "population": null, "source": "bing; MTC"}, "geometry": {"type": "Point", "coordinates": [-71.2124238, -14.3274376]}}, {"id": "1672", "type": "Feature", "properties": {"ELE_1": null, "FIXME_1": null, "NAME_1": null, "comment": null, "descriptio": null, "ele": 3856.0, "fixme": null, "name": "Jilayhua", "note": null, "osm_id": 7404852330, "place": "village", "population": null, "source": null}, "geometry": {"type": "Point", "coordinates": [-71.4412376, -14.2021962]}}, {"id": "1676", "type": "Feature", "properties": {"ELE_1": null, "FIXME_1": null, "NAME_1": null, "comment": null, "descriptio": null, "ele": 3862.0, "fixme": null, "name": "Colliri Grande", "note": null, "osm_id": 7404852334, "place": "village", "population": null, "source": null}, "geometry": {"type": "Point", "coordinates": [-71.4550079, -14.2084509]}}, {"id": "461", "type": "Feature", "properties": {"ELE_1": null, "FIXME_1": null, "NAME_1": null, "comment": null, "descriptio": null, "ele": null, "fixme": null, "name": "Antapallpa", "note": null, "osm_id": 3083345501, "place": "village", "population": null, "source": "bing; MTC"}, "geometry": {"type": "Point", "coordinates": [-71.7162392, -14.1269411]}}, {"id": "1110", "type": "Feature", "properties": {"ELE_1": null, "FIXME_1": null, "NAME_1": null, "comment": null, "descriptio": null, "ele": null, "fixme": null, "name": "Ocefina", "note": null, "osm_id": 4181097113, "place": "hamlet", "population": null, "source": null}, "geometry": {"type": "Point", "coordinates": [-71.3102329, -13.9673782]}}, {"id": "545", "type": "Feature", "properties": {"ELE_1": null, "FIXME_1": null, "NAME_1": null, "comment": null, "descriptio": null, "ele": null, "fixme": null, "name": "Aravito", "note": null, "osm_id": 3295222861, "place": "hamlet", "population": null, "source": "bing"}, "geometry": {"type": "Point", "coordinates": [-72.1690364, -13.7097714]}}, {"id": "1547", "type": "Feature", "properties": {"ELE_1": null, "FIXME_1": null, "NAME_1": null, "comment": null, "descriptio": null, "ele": null, "fixme": null, "name": "Monte Carmelo", "note": null, "osm_id": 6472215497, "place": "hamlet", "population": null, "source": null}, "geometry": {"type": "Point", "coordinates": [-72.974226, -12.4652631]}}, {"id": "303", "type": "Feature", "properties": {"ELE_1": null, "FIXME_1": null, "NAME_1": null, "comment": null, "descriptio": null, "ele": 3850.0, "fixme": null, "name": "Huancarani", "note": null, "osm_id": 2378304438, "place": "town", "population": null, "source": "http://www.mtc.gob.pe/estadisticas/estadistica/mapas/TRANSPORTES/VIAL/08_CUSCO_VIAL.pdf"}, "geometry": {"type": "Point", "coordinates": [-71.6518467, -13.5044612]}}, {"id": "1359", "type": "Feature", "properties": {"ELE_1": null, "FIXME_1": null, "NAME_1": null, "comment": null, "descriptio": null, "ele": null, "fixme": null, "name": "Lloqueta", "note": null, "osm_id": 6008681585, "place": "town", "population": null, "source": null}, "geometry": {"type": "Point", "coordinates": [-71.6332992, -13.5769409]}}, {"id": "2164", "type": "Feature", "properties": {"ELE_1": null, "FIXME_1": null, "NAME_1": null, "comment": null, "descriptio": null, "ele": null, "fixme": null, "name": "hamlet", "note": null, "osm_id": 7702927568, "place": "hamlet", "population": null, "source": null}, "geometry": {"type": "Point", "coordinates": [-71.8053049, -13.5710695]}}, {"id": "2163", "type": "Feature", "properties": {"ELE_1": null, "FIXME_1": null, "NAME_1": null, "comment": null, "descriptio": null, "ele": null, "fixme": null, "name": "hamlet", "note": null, "osm_id": 7702927567, "place": "hamlet", "population": null, "source": null}, "geometry": {"type": "Point", "coordinates": [-71.7488068, -13.4978864]}}, {"id": "242", "type": "Feature", "properties": {"ELE_1": null, "FIXME_1": null, "NAME_1": null, "comment": null, "descriptio": null, "ele": null, "fixme": null, "name": "Tip\u00f3n", "note": null, "osm_id": 2350415314, "place": "village", "population": null, "source": null}, "geometry": {"type": "Point", "coordinates": [-71.7898185, -13.5901327]}}, {"id": "1616", "type": "Feature", "properties": {"ELE_1": null, "FIXME_1": null, "NAME_1": null, "comment": null, "descriptio": null, "ele": null, "fixme": null, "name": "Pacor", "note": null, "osm_id": 6985713009, "place": "hamlet", "population": null, "source": null}, "geometry": {"type": "Point", "coordinates": [-71.7477473, -13.5211445]}}, {"id": "1615", "type": "Feature", "properties": {"ELE_1": null, "FIXME_1": null, "NAME_1": null, "comment": null, "descriptio": null, "ele": null, "fixme": null, "name": "Vicho", "note": null, "osm_id": 6985713008, "place": "hamlet", "population": null, "source": null}, "geometry": {"type": "Point", "coordinates": [-71.7388209, -13.5438553]}}, {"id": "60", "type": "Feature", "properties": {"ELE_1": null, "FIXME_1": null, "NAME_1": null, "comment": null, "descriptio": null, "ele": 2839.0, "fixme": null, "name": "Mollepata", "note": null, "osm_id": 497114578, "place": "village", "population": null, "source": null}, "geometry": {"type": "Point", "coordinates": [-72.5276403, -13.5086248]}}, {"id": "2169", "type": "Feature", "properties": {"ELE_1": null, "FIXME_1": null, "NAME_1": null, "comment": null, "descriptio": null, "ele": null, "fixme": null, "name": "Mollepata", "note": null, "osm_id": 7703023921, "place": "hamlet", "population": null, "source": null}, "geometry": {"type": "Point", "coordinates": [-72.5313279, -13.5129348]}}, {"id": "2170", "type": "Feature", "properties": {"ELE_1": null, "FIXME_1": null, "NAME_1": null, "comment": null, "descriptio": null, "ele": null, "fixme": null, "name": "Mollepata", "note": null, "osm_id": 7703023922, "place": "hamlet", "population": null, "source": null}, "geometry": {"type": "Point", "coordinates": [-72.5216344, -13.512082]}}, {"id": "2171", "type": "Feature", "properties": {"ELE_1": null, "FIXME_1": null, "NAME_1": null, "comment": null, "descriptio": null, "ele": null, "fixme": null, "name": "Mollepata", "note": null, "osm_id": 7703023923, "place": "hamlet", "population": null, "source": null}, "geometry": {"type": "Point", "coordinates": [-72.5288951, -13.5145621]}}, {"id": "60", "type": "Feature", "properties": {"ELE_1": null, "FIXME_1": null, "NAME_1": null, "comment": null, "descriptio": null, "ele": 2839.0, "fixme": null, "name": "Mollepata", "note": null, "osm_id": 497114578, "place": "village", "population": null, "source": null}, "geometry": {"type": "Point", "coordinates": [-72.5276403, -13.5086248]}}, {"id": "2168", "type": "Feature", "properties": {"ELE_1": null, "FIXME_1": null, "NAME_1": null, "comment": null, "descriptio": null, "ele": null, "fixme": null, "name": "Mollepata", "note": null, "osm_id": 7703023920, "place": "hamlet", "population": null, "source": null}, "geometry": {"type": "Point", "coordinates": [-72.5254995, -13.5105772]}}, {"id": "2170", "type": "Feature", "properties": {"ELE_1": null, "FIXME_1": null, "NAME_1": null, "comment": null, "descriptio": null, "ele": null, "fixme": null, "name": "Mollepata", "note": null, "osm_id": 7703023922, "place": "hamlet", "population": null, "source": null}, "geometry": {"type": "Point", "coordinates": [-72.5216344, -13.512082]}}, {"id": "2171", "type": "Feature", "properties": {"ELE_1": null, "FIXME_1": null, "NAME_1": null, "comment": null, "descriptio": null, "ele": null, "fixme": null, "name": "Mollepata", "note": null, "osm_id": 7703023923, "place": "hamlet", "population": null, "source": null}, "geometry": {"type": "Point", "coordinates": [-72.5288951, -13.5145621]}}, {"id": "60", "type": "Feature", "properties": {"ELE_1": null, "FIXME_1": null, "NAME_1": null, "comment": null, "descriptio": null, "ele": 2839.0, "fixme": null, "name": "Mollepata", "note": null, "osm_id": 497114578, "place": "village", "population": null, "source": null}, "geometry": {"type": "Point", "coordinates": [-72.5276403, -13.5086248]}}, {"id": "2168", "type": "Feature", "properties": {"ELE_1": null, "FIXME_1": null, "NAME_1": null, "comment": null, "descriptio": null, "ele": null, "fixme": null, "name": "Mollepata", "note": null, "osm_id": 7703023920, "place": "hamlet", "population": null, "source": null}, "geometry": {"type": "Point", "coordinates": [-72.5254995, -13.5105772]}}, {"id": "2169", "type": "Feature", "properties": {"ELE_1": null, "FIXME_1": null, "NAME_1": null, "comment": null, "descriptio": null, "ele": null, "fixme": null, "name": "Mollepata", "note": null, "osm_id": 7703023921, "place": "hamlet", "population": null, "source": null}, "geometry": {"type": "Point", "coordinates": [-72.5313279, -13.5129348]}}, {"id": "2171", "type": "Feature", "properties": {"ELE_1": null, "FIXME_1": null, "NAME_1": null, "comment": null, "descriptio": null, "ele": null, "fixme": null, "name": "Mollepata", "note": null, "osm_id": 7703023923, "place": "hamlet", "population": null, "source": null}, "geometry": {"type": "Point", "coordinates": [-72.5288951, -13.5145621]}}, {"id": "60", "type": "Feature", "properties": {"ELE_1": null, "FIXME_1": null, "NAME_1": null, "comment": null, "descriptio": null, "ele": 2839.0, "fixme": null, "name": "Mollepata", "note": null, "osm_id": 497114578, "place": "village", "population": null, "source": null}, "geometry": {"type": "Point", "coordinates": [-72.5276403, -13.5086248]}}, {"id": "2168", "type": "Feature", "properties": {"ELE_1": null, "FIXME_1": null, "NAME_1": null, "comment": null, "descriptio": null, "ele": null, "fixme": null, "name": "Mollepata", "note": null, "osm_id": 7703023920, "place": "hamlet", "population": null, "source": null}, "geometry": {"type": "Point", "coordinates": [-72.5254995, -13.5105772]}}, {"id": "2169", "type": "Feature", "properties": {"ELE_1": null, "FIXME_1": null, "NAME_1": null, "comment": null, "descriptio": null, "ele": null, "fixme": null, "name": "Mollepata", "note": null, "osm_id": 7703023921, "place": "hamlet", "population": null, "source": null}, "geometry": {"type": "Point", "coordinates": [-72.5313279, -13.5129348]}}, {"id": "2170", "type": "Feature", "properties": {"ELE_1": null, "FIXME_1": null, "NAME_1": null, "comment": null, "descriptio": null, "ele": null, "fixme": null, "name": "Mollepata", "note": null, "osm_id": 7703023922, "place": "hamlet", "population": null, "source": null}, "geometry": {"type": "Point", "coordinates": [-72.5216344, -13.512082]}}, {"id": "1076", "type": "Feature", "properties": {"ELE_1": null, "FIXME_1": null, "NAME_1": null, "comment": null, "descriptio": null, "ele": null, "fixme": "find exact position", "name": "Ochigoteni", "note": null, "osm_id": 3958857669, "place": "hamlet", "population": null, "source": "local knowledge"}, "geometry": {"type": "Point", "coordinates": [-73.1167793, -12.6260086]}}, {"id": "1503", "type": "Feature", "properties": {"ELE_1": null, "FIXME_1": null, "NAME_1": null, "comment": null, "descriptio": null, "ele": null, "fixme": null, "name": "Ayavire", "note": null, "osm_id": 6437919941, "place": "hamlet", "population": null, "source": null}, "geometry": {"type": "Point", "coordinates": [-72.3932448, -13.4563912]}}, {"id": "1642", "type": "Feature", "properties": {"ELE_1": null, "FIXME_1": null, "NAME_1": null, "comment": null, "descriptio": null, "ele": null, "fixme": null, "name": "Huertapata", "note": null, "osm_id": 7232934176, "place": "village", "population": null, "source": null}, "geometry": {"type": "Point", "coordinates": [-72.4501331, -12.6036516]}}, {"id": "694", "type": "Feature", "properties": {"ELE_1": null, "FIXME_1": null, "NAME_1": null, "comment": null, "descriptio": null, "ele": null, "fixme": null, "name": "Dormenduyoc", "note": null, "osm_id": 3508437233, "place": "hamlet", "population": null, "source": "bing; MTC"}, "geometry": {"type": "Point", "coordinates": [-72.6329735, -12.8005599]}}, {"id": "411", "type": "Feature", "properties": {"ELE_1": null, "FIXME_1": null, "NAME_1": null, "comment": null, "descriptio": null, "ele": null, "fixme": null, "name": "Misminay", "note": null, "osm_id": 3025483859, "place": "village", "population": null, "source": null}, "geometry": {"type": "Point", "coordinates": [-72.2028321, -13.3423444]}}, {"id": "410", "type": "Feature", "properties": {"ELE_1": null, "FIXME_1": null, "NAME_1": null, "comment": null, "descriptio": null, "ele": null, "fixme": null, "name": "Mullakas", "note": null, "osm_id": 3025481484, "place": "village", "population": null, "source": null}, "geometry": {"type": "Point", "coordinates": [-72.1918351, -13.358937]}}, {"id": "146", "type": "Feature", "properties": {"ELE_1": null, "FIXME_1": null, "NAME_1": null, "comment": null, "descriptio": null, "ele": 3400.0, "fixme": null, "name": "Zurite", "note": null, "osm_id": 1696034294, "place": "town", "population": null, "source": null}, "geometry": {"type": "Point", "coordinates": [-72.2554716, -13.4554756]}}, {"id": "2334", "type": "Feature", "properties": {"ELE_1": null, "FIXME_1": null, "NAME_1": null, "comment": null, "descriptio": null, "ele": null, "fixme": null, "name": "Zurite", "note": null, "osm_id": 7722037285, "place": "hamlet", "population": null, "source": null}, "geometry": {"type": "Point", "coordinates": [-72.2574073, -13.4560641]}}, {"id": "2336", "type": "Feature", "properties": {"ELE_1": null, "FIXME_1": null, "NAME_1": null, "comment": null, "descriptio": null, "ele": null, "fixme": null, "name": "Zurite", "note": null, "osm_id": 7722037287, "place": "hamlet", "population": null, "source": null}, "geometry": {"type": "Point", "coordinates": [-72.2557817, -13.4535187]}}, {"id": "146", "type": "Feature", "properties": {"ELE_1": null, "FIXME_1": null, "NAME_1": null, "comment": null, "descriptio": null, "ele": 3400.0, "fixme": null, "name": "Zurite", "note": null, "osm_id": 1696034294, "place": "town", "population": null, "source": null}, "geometry": {"type": "Point", "coordinates": [-72.2554716, -13.4554756]}}, {"id": "2333", "type": "Feature", "properties": {"ELE_1": null, "FIXME_1": null, "NAME_1": null, "comment": null, "descriptio": null, "ele": null, "fixme": null, "name": "Zurite", "note": null, "osm_id": 7722024284, "place": "hamlet", "population": null, "source": null}, "geometry": {"type": "Point", "coordinates": [-72.2607333, -13.4561189]}}, {"id": "2336", "type": "Feature", "properties": {"ELE_1": null, "FIXME_1": null, "NAME_1": null, "comment": null, "descriptio": null, "ele": null, "fixme": null, "name": "Zurite", "note": null, "osm_id": 7722037287, "place": "hamlet", "population": null, "source": null}, "geometry": {"type": "Point", "coordinates": [-72.2557817, -13.4535187]}}, {"id": "146", "type": "Feature", "properties": {"ELE_1": null, "FIXME_1": null, "NAME_1": null, "comment": null, "descriptio": null, "ele": 3400.0, "fixme": null, "name": "Zurite", "note": null, "osm_id": 1696034294, "place": "town", "population": null, "source": null}, "geometry": {"type": "Point", "coordinates": [-72.2554716, -13.4554756]}}, {"id": "2333", "type": "Feature", "properties": {"ELE_1": null, "FIXME_1": null, "NAME_1": null, "comment": null, "descriptio": null, "ele": null, "fixme": null, "name": "Zurite", "note": null, "osm_id": 7722024284, "place": "hamlet", "population": null, "source": null}, "geometry": {"type": "Point", "coordinates": [-72.2607333, -13.4561189]}}, {"id": "2334", "type": "Feature", "properties": {"ELE_1": null, "FIXME_1": null, "NAME_1": null, "comment": null, "descriptio": null, "ele": null, "fixme": null, "name": "Zurite", "note": null, "osm_id": 7722037285, "place": "hamlet", "population": null, "source": null}, "geometry": {"type": "Point", "coordinates": [-72.2574073, -13.4560641]}}, {"id": "74", "type": "Feature", "properties": {"ELE_1": null, "FIXME_1": null, "NAME_1": null, "comment": null, "descriptio": null, "ele": 3459.0, "fixme": null, "name": "Ancahuasi", "note": null, "osm_id": 942843183, "place": "town", "population": null, "source": null}, "geometry": {"type": "Point", "coordinates": [-72.3005668, -13.4571382]}}, {"id": "1374", "type": "Feature", "properties": {"ELE_1": null, "FIXME_1": null, "NAME_1": null, "comment": null, "descriptio": null, "ele": null, "fixme": null, "name": "Kata\u00f1aray", "note": null, "osm_id": 6126392043, "place": "hamlet", "population": null, "source": null}, "geometry": {"type": "Point", "coordinates": [-72.2734684, -13.4781681]}}, {"id": "918", "type": "Feature", "properties": {"ELE_1": null, "FIXME_1": null, "NAME_1": null, "comment": null, "descriptio": null, "ele": null, "fixme": null, "name": "Manitea Baja", "note": null, "osm_id": 3625545397, "place": "hamlet", "population": null, "source": null}, "geometry": {"type": "Point", "coordinates": [-73.6647935, -12.7411473]}}, {"id": "212", "type": "Feature", "properties": {"ELE_1": null, "FIXME_1": null, "NAME_1": null, "comment": null, "descriptio": null, "ele": null, "fixme": null, "name": "Ayre", "note": null, "osm_id": 2325220837, "place": "village", "population": null, "source": null}, "geometry": {"type": "Point", "coordinates": [-71.5748899, -13.4158312]}}, {"id": "218", "type": "Feature", "properties": {"ELE_1": null, "FIXME_1": null, "NAME_1": null, "comment": null, "descriptio": null, "ele": null, "fixme": null, "name": "K'ucya", "note": null, "osm_id": 2331475412, "place": "hamlet", "population": null, "source": null}, "geometry": {"type": "Point", "coordinates": [-71.6120063, -13.4183722]}}, {"id": "1521", "type": "Feature", "properties": {"ELE_1": null, "FIXME_1": null, "NAME_1": null, "comment": null, "descriptio": null, "ele": null, "fixme": "Please check the name correctness", "name": "Limonpata", "note": null, "osm_id": 6464476127, "place": "hamlet", "population": null, "source": null}, "geometry": {"type": "Point", "coordinates": [-72.6724515, -13.0310638]}}, {"id": "433", "type": "Feature", "properties": {"ELE_1": null, "FIXME_1": null, "NAME_1": null, "comment": null, "descriptio": null, "ele": null, "fixme": null, "name": "Tanccac", "note": null, "osm_id": 3049736443, "place": "village", "population": null, "source": null}, "geometry": {"type": "Point", "coordinates": [-72.3081832, -13.2284837]}}, {"id": "546", "type": "Feature", "properties": {"ELE_1": null, "FIXME_1": null, "NAME_1": null, "comment": null, "descriptio": null, "ele": null, "fixme": null, "name": "Cachiccata", "note": null, "osm_id": 3299613415, "place": "village", "population": null, "source": null}, "geometry": {"type": "Point", "coordinates": [-72.2890771, -13.257677]}}, {"id": "1319", "type": "Feature", "properties": {"ELE_1": null, "FIXME_1": null, "NAME_1": null, "comment": null, "descriptio": null, "ele": null, "fixme": null, "name": "Sayllapata", "note": null, "osm_id": 5446799077, "place": "village", "population": null, "source": null}, "geometry": {"type": "Point", "coordinates": [-71.6539339, -13.4285336]}}, {"id": "493", "type": "Feature", "properties": {"ELE_1": null, "FIXME_1": null, "NAME_1": null, "comment": null, "descriptio": null, "ele": null, "fixme": "Please check the name and position correctness", "name": "Mika", "note": null, "osm_id": 3097803192, "place": "village", "population": null, "source": "bing; MTC"}, "geometry": {"type": "Point", "coordinates": [-71.6524856, -13.4196794]}}, {"id": "45", "type": "Feature", "properties": {"ELE_1": null, "FIXME_1": null, "NAME_1": null, "comment": null, "descriptio": null, "ele": 2932.0, "fixme": null, "name": "Calca", "note": null, "osm_id": 436613486, "place": "town", "population": null, "source": null}, "geometry": {"type": "Point", "coordinates": [-71.9560084, -13.3216818]}}, {"id": "225", "type": "Feature", "properties": {"ELE_1": null, "FIXME_1": null, "NAME_1": null, "comment": null, "descriptio": null, "ele": null, "fixme": null, "name": "Corao", "note": null, "osm_id": 2348419285, "place": "village", "population": null, "source": null}, "geometry": {"type": "Point", "coordinates": [-71.9227935, -13.4782301]}}]}