{"type": "FeatureCollection", "features": [{"id": "100", "type": "Feature", "properties": {"ELE_1": null, "FIXME_1": null, "NAME_1": null, "comment": null, "descriptio": null, "ele": null, "fixme": null, "name": "Cusco", "note": null, "osm_id": 1237030089, "place": "region", "population": null, "source": "GNS"}, "geometry": {"type": "Point", "coordinates": [-71.9906371, -13.5542811]}}, {"id": "1371", "type": "Feature", "properties": {"ELE_1": null, "FIXME_1": null, "NAME_1": null, "comment": null, "descriptio": null, "ele": null, "fixme": null, "name": "Vista Allegre", "note": null, "osm_id": 5642189176, "place": "hamlet", "population": null, "source": null}, "geometry": {"type": "Point", "coordinates": [-73.1601611, -13.0286157]}}, {"id": "1383", "type": "Feature", "properties": {"ELE_1": null, "FIXME_1": null, "NAME_1": null, "comment": null, "descriptio": null, "ele": null, "fixme": null, "name": "Huayopata", "note": null, "osm_id": 5917169837, "place": "village", "population": null, "source": null}, "geometry": {"type": "Point", "coordinates": [-72.5930584, -13.0037954]}}, {"id": "0", "type": "Feature", "properties": {"ELE_1": null, "FIXME_1": null, "NAME_1": null, "comment": null, "descriptio": null, "ele": 3400.0, "fixme": null, "name": "Cusco", "note": null, "osm_id": 59115290, "place": "city", "population": 420137.0, "source": null}, "geometry": {"type": "Point", "coordinates": [-71.9785356, -13.5170887]}}, {"id": "193", "type": "Feature", "properties": {"ELE_1": null, "FIXME_1": null, "NAME_1": null, "comment": null, "descriptio": null, "ele": 3215.0, "fixme": null, "name": "Acomayo", "note": null, "osm_id": 2317137705, "place": "town", "population": null, "source": "bing; MTC"}, "geometry": {"type": "Point", "coordinates": [-71.6834556, -13.9192017]}}, {"id": "102", "type": "Feature", "properties": {"ELE_1": null, "FIXME_1": null, "NAME_1": null, "comment": null, "descriptio": null, "ele": null, "fixme": null, "name": "Acomayo", "note": null, "osm_id": 1237030094, "place": "region", "population": null, "source": "GNS"}, "geometry": {"type": "Point", "coordinates": [-71.666667, -13.916667]}}, {"id": "1644", "type": "Feature", "properties": {"ELE_1": null, "FIXME_1": null, "NAME_1": null, "comment": null, "descriptio": null, "ele": null, "fixme": null, "name": "Huambutio", "note": null, "osm_id": 6985712234, "place": "hamlet", "population": null, "source": null}, "geometry": {"type": "Point", "coordinates": [-71.7144692, -13.5835686]}}, {"id": "1542", "type": "Feature", "properties": {"ELE_1": null, "FIXME_1": null, "NAME_1": null, "comment": null, "descriptio": null, "ele": null, "fixme": null, "name": "Yavero Chico", "note": null, "osm_id": 6443501189, "place": "hamlet", "population": null, "source": null}, "geometry": {"type": "Point", "coordinates": [-72.5205364, -12.5419412]}}, {"id": "535", "type": "Feature", "properties": {"ELE_1": null, "FIXME_1": null, "NAME_1": null, "comment": null, "descriptio": null, "ele": null, "fixme": null, "name": "Yanahuara", "note": null, "osm_id": 3151852373, "place": "hamlet", "population": null, "source": null}, "geometry": {"type": "Point", "coordinates": [-72.1742147, -13.2749512]}}, {"id": "866", "type": "Feature", "properties": {"ELE_1": null, "FIXME_1": null, "NAME_1": null, "comment": null, "descriptio": null, "ele": null, "fixme": null, "name": "Curca", "note": null, "osm_id": 3564222572, "place": "village", "population": null, "source": null}, "geometry": {"type": "Point", "coordinates": [-72.0850533, -14.1425726]}}, {"id": "504", "type": "Feature", "properties": {"ELE_1": null, "FIXME_1": null, "NAME_1": null, "comment": null, "descriptio": null, "ele": null, "fixme": null, "name": "Tiracanchi", "note": null, "osm_id": 3100484477, "place": "village", "population": null, "source": "bing"}, "geometry": {"type": "Point", "coordinates": [-71.6950828, -13.4418723]}}, {"id": "503", "type": "Feature", "properties": {"ELE_1": null, "FIXME_1": null, "NAME_1": null, "comment": null, "descriptio": null, "ele": null, "fixme": null, "name": "Tiracanchi", "note": null, "osm_id": 3100484465, "place": "village", "population": null, "source": "bing"}, "geometry": {"type": "Point", "coordinates": [-71.7098075, -13.4416171]}}, {"id": "1714", "type": "Feature", "properties": {"ELE_1": null, "FIXME_1": null, "NAME_1": null, "comment": null, "descriptio": null, "ele": null, "fixme": null, "name": "Urco", "note": null, "osm_id": 7428703691, "place": "village", "population": null, "source": null}, "geometry": {"type": "Point", "coordinates": [-71.9819608, -13.3244346]}}, {"id": "422", "type": "Feature", "properties": {"ELE_1": null, "FIXME_1": null, "NAME_1": null, "comment": null, "descriptio": null, "ele": null, "fixme": null, "name": "Yanahuara", "note": null, "osm_id": 3025596427, "place": "village", "population": null, "source": null}, "geometry": {"type": "Point", "coordinates": [-72.1862775, -13.2766857]}}, {"id": "1064", "type": "Feature", "properties": {"ELE_1": null, "FIXME_1": null, "NAME_1": null, "comment": null, "descriptio": null, "ele": null, "fixme": null, "name": "San Lorenzo", "note": null, "osm_id": 3726888136, "place": "village", "population": null, "source": null}, "geometry": {"type": "Point", "coordinates": [-72.3877975, -12.6775547]}}, {"id": "680", "type": "Feature", "properties": {"ELE_1": null, "FIXME_1": null, "NAME_1": null, "comment": null, "descriptio": null, "ele": 95.0, "fixme": null, "name": "Palestina Baja", "note": null, "osm_id": 3505776962, "place": "village", "population": 950.0, "source": "bing;gps;DEVIDA"}, "geometry": {"type": "Point", "coordinates": [-73.5798929, -12.8358671]}}, {"id": "678", "type": "Feature", "properties": {"ELE_1": null, "FIXME_1": null, "NAME_1": null, "comment": null, "descriptio": null, "ele": null, "fixme": null, "name": "Palestina Baja", "note": null, "osm_id": 3505776745, "place": "village", "population": null, "source": "bing"}, "geometry": {"type": "Point", "coordinates": [-73.5774865, -12.8294385]}}, {"id": "930", "type": "Feature", "properties": {"ELE_1": null, "FIXME_1": null, "NAME_1": null, "comment": null, "descriptio": null, "ele": null, "fixme": null, "name": "Las Palmas", "note": null, "osm_id": 3625527586, "place": "hamlet", "population": null, "source": null}, "geometry": {"type": "Point", "coordinates": [-73.7677958, -12.6520314]}}, {"id": "848", "type": "Feature", "properties": {"ELE_1": null, "FIXME_1": null, "NAME_1": null, "comment": null, "descriptio": null, "ele": null, "fixme": null, "name": "Quebrada Honda", "note": null, "osm_id": 3559743393, "place": "hamlet", "population": null, "source": "bing"}, "geometry": {"type": "Point", "coordinates": [-72.6566366, -12.8321699]}}, {"id": "1566", "type": "Feature", "properties": {"ELE_1": null, "FIXME_1": null, "NAME_1": null, "comment": null, "descriptio": null, "ele": null, "fixme": null, "name": "Cedros", "note": null, "osm_id": 6472009596, "place": "hamlet", "population": null, "source": null}, "geometry": {"type": "Point", "coordinates": [-71.7584721, -13.0494461]}}, {"id": "709", "type": "Feature", "properties": {"ELE_1": null, "FIXME_1": null, "NAME_1": null, "comment": null, "descriptio": null, "ele": null, "fixme": null, "name": "Quebrada Honda", "note": null, "osm_id": 3508438715, "place": "hamlet", "population": null, "source": "bing; MTC"}, "geometry": {"type": "Point", "coordinates": [-72.6746488, -12.8227759]}}, {"id": "464", "type": "Feature", "properties": {"ELE_1": null, "FIXME_1": null, "NAME_1": null, "comment": null, "descriptio": null, "ele": null, "fixme": null, "name": "Curca", "note": null, "osm_id": 3079667235, "place": "hamlet", "population": null, "source": null}, "geometry": {"type": "Point", "coordinates": [-72.0850525, -14.1425712]}}, {"id": "871", "type": "Feature", "properties": {"ELE_1": null, "FIXME_1": null, "NAME_1": null, "comment": null, "descriptio": null, "ele": null, "fixme": null, "name": "Huayllani", "note": null, "osm_id": 3564222591, "place": "hamlet", "population": null, "source": null}, "geometry": {"type": "Point", "coordinates": [-72.2996486, -14.3983136]}}, {"id": "870", "type": "Feature", "properties": {"ELE_1": null, "FIXME_1": null, "NAME_1": null, "comment": null, "descriptio": null, "ele": null, "fixme": null, "name": "Huayllani", "note": null, "osm_id": 3564222590, "place": "hamlet", "population": null, "source": null}, "geometry": {"type": "Point", "coordinates": [-72.2611588, -14.3752599]}}, {"id": "909", "type": "Feature", "properties": {"ELE_1": null, "FIXME_1": null, "NAME_1": null, "comment": null, "descriptio": null, "ele": null, "fixme": null, "name": "Mayapo", "note": null, "osm_id": 3623884994, "place": "village", "population": null, "source": null}, "geometry": {"type": "Point", "coordinates": [-73.914101, -12.4066064]}}, {"id": "908", "type": "Feature", "properties": {"ELE_1": null, "FIXME_1": null, "NAME_1": null, "comment": null, "descriptio": null, "ele": null, "fixme": null, "name": "Mayapo", "note": null, "osm_id": 3623884993, "place": "village", "population": null, "source": null}, "geometry": {"type": "Point", "coordinates": [-73.9577524, -12.3575771]}}, {"id": "701", "type": "Feature", "properties": {"ELE_1": null, "FIXME_1": null, "NAME_1": null, "comment": null, "descriptio": null, "ele": null, "fixme": null, "name": "Las Palmas", "note": null, "osm_id": 3508385625, "place": "village", "population": null, "source": "bing"}, "geometry": {"type": "Point", "coordinates": [-73.767743, -12.6519315]}}, {"id": "968", "type": "Feature", "properties": {"ELE_1": null, "FIXME_1": null, "NAME_1": null, "comment": null, "descriptio": null, "ele": null, "fixme": null, "name": "Accoyo", "note": null, "osm_id": 3639693593, "place": "hamlet", "population": null, "source": null}, "geometry": {"type": "Point", "coordinates": [-70.8122484, -13.8666295]}}, {"id": "967", "type": "Feature", "properties": {"ELE_1": null, "FIXME_1": null, "NAME_1": null, "comment": null, "descriptio": null, "ele": null, "fixme": null, "name": "Accoyo", "note": null, "osm_id": 3639693592, "place": "hamlet", "population": null, "source": null}, "geometry": {"type": "Point", "coordinates": [-70.8140764, -13.827314]}}, {"id": "582", "type": "Feature", "properties": {"ELE_1": null, "FIXME_1": null, "NAME_1": null, "comment": null, "descriptio": null, "ele": null, "fixme": null, "name": "San Lorenzo", "note": null, "osm_id": 3485284669, "place": "village", "population": null, "source": "bing"}, "geometry": {"type": "Point", "coordinates": [-72.3902999, -12.6742212]}}, {"id": "1166", "type": "Feature", "properties": {"ELE_1": null, "FIXME_1": null, "NAME_1": null, "comment": null, "descriptio": null, "ele": null, "fixme": null, "name": "Labraco", "note": null, "osm_id": 4407252982, "place": "hamlet", "population": null, "source": null}, "geometry": {"type": "Point", "coordinates": [-71.3277629, -13.9689731]}}, {"id": "1135", "type": "Feature", "properties": {"ELE_1": null, "FIXME_1": null, "NAME_1": null, "comment": null, "descriptio": null, "ele": null, "fixme": null, "name": "Labraco", "note": null, "osm_id": 4181097114, "place": "village", "population": null, "source": null}, "geometry": {"type": "Point", "coordinates": [-71.331919, -13.971697]}}, {"id": "1392", "type": "Feature", "properties": {"ELE_1": null, "FIXME_1": null, "NAME_1": null, "comment": null, "descriptio": null, "ele": null, "fixme": null, "name": "Ccopi", "note": null, "osm_id": 6008697889, "place": "town", "population": null, "source": null}, "geometry": {"type": "Point", "coordinates": [-71.5845231, -13.5926266]}}, {"id": "1274", "type": "Feature", "properties": {"ELE_1": null, "FIXME_1": null, "NAME_1": null, "comment": null, "descriptio": null, "ele": 978.0, "fixme": null, "name": "Talanca", "note": null, "osm_id": 5064778779, "place": "hamlet", "population": 150.0, "source": "gps;DEVIDA"}, "geometry": {"type": "Point", "coordinates": [-73.4713124, -13.0015968]}}, {"id": "1263", "type": "Feature", "properties": {"ELE_1": null, "FIXME_1": null, "NAME_1": null, "comment": null, "descriptio": null, "ele": null, "fixme": null, "name": "Talanca", "note": null, "osm_id": 5064615934, "place": "hamlet", "population": null, "source": null}, "geometry": {"type": "Point", "coordinates": [-73.4774452, -13.0103668]}}, {"id": "15", "type": "Feature", "properties": {"ELE_1": null, "FIXME_1": null, "NAME_1": null, "comment": null, "descriptio": null, "ele": null, "fixme": null, "name": "Vista Allegre", "note": null, "osm_id": 415166319, "place": "hamlet", "population": null, "source": null}, "geometry": {"type": "Point", "coordinates": [-73.1503615, -13.0337609]}}, {"id": "25", "type": "Feature", "properties": {"ELE_1": null, "FIXME_1": null, "NAME_1": null, "comment": null, "descriptio": null, "ele": null, "fixme": null, "name": "Huayopata", "note": null, "osm_id": 415166332, "place": "village", "population": null, "source": null}, "geometry": {"type": "Point", "coordinates": [-72.5350317, -12.9967612]}}, {"id": "1194", "type": "Feature", "properties": {"ELE_1": null, "FIXME_1": null, "NAME_1": null, "comment": null, "descriptio": null, "ele": null, "fixme": null, "name": "Ccopi", "note": null, "osm_id": 4520762019, "place": "hamlet", "population": null, "source": null}, "geometry": {"type": "Point", "coordinates": [-71.5680089, -13.6089594]}}, {"id": "340", "type": "Feature", "properties": {"ELE_1": null, "FIXME_1": null, "NAME_1": null, "comment": null, "descriptio": null, "ele": null, "fixme": null, "name": "Yavero Chico", "note": null, "osm_id": 2965485316, "place": "hamlet", "population": null, "source": "MapBox; http://www.mtc.gob.pe/portal/transportes/red_vial/mapas_redvial.htm"}, "geometry": {"type": "Point", "coordinates": [-72.5075867, -12.5192772]}}, {"id": "759", "type": "Feature", "properties": {"ELE_1": null, "FIXME_1": null, "NAME_1": null, "comment": null, "descriptio": null, "ele": null, "fixme": null, "name": "Cedros", "note": null, "osm_id": 3524079845, "place": "hamlet", "population": null, "source": "bing"}, "geometry": {"type": "Point", "coordinates": [-71.7636897, -13.0610295]}}, {"id": "302", "type": "Feature", "properties": {"ELE_1": null, "FIXME_1": null, "NAME_1": null, "comment": null, "descriptio": null, "ele": null, "fixme": null, "name": "Huambutio", "note": null, "osm_id": 2377095148, "place": "village", "population": null, "source": "http://www.mtc.gob.pe/estadisticas/estadistica/mapas/TRANSPORTES/VIAL/08_CUSCO_VIAL.pdf"}, "geometry": {"type": "Point", "coordinates": [-71.7244937, -13.597717]}}, {"id": "534", "type": "Feature", "properties": {"ELE_1": null, "FIXME_1": null, "NAME_1": null, "comment": null, "descriptio": null, "ele": null, "fixme": null, "name": "Urco", "note": null, "osm_id": 3151852370, "place": "hamlet", "population": null, "source": null}, "geometry": {"type": "Point", "coordinates": [-71.9710918, -13.3248813]}}]}