{"type": "FeatureCollection", "features": [{"id": "0", "type": "Feature", "properties": {"ELE_1": null, "FIXME_1": null, "NAME_1": null, "comment": null, "descriptio": null, "ele": 3400.0, "fixme": null, "name": "Cusco", "note": null, "osm_id": 59115290, "place": "city", "population": 420137.0, "source": null}, "geometry": {"type": "Point", "coordinates": [-71.9785356, -13.5170887]}}, {"id": "4", "type": "Feature", "properties": {"ELE_1": null, "FIXME_1": null, "NAME_1": null, "comment": null, "descriptio": null, "ele": 3480.0, "fixme": null, "name": "Combapata", "note": null, "osm_id": 262945615, "place": "town", "population": null, "source": null}, "geometry": {"type": "Point", "coordinates": [-71.4296335, -14.1015949]}}, {"id": "8", "type": "Feature", "properties": {"ELE_1": null, "FIXME_1": null, "NAME_1": null, "comment": null, "descriptio": null, "ele": 2606.0, "fixme": null, "name": "Limatambo", "note": null, "osm_id": 288517478, "place": "village", "population": null, "source": null}, "geometry": {"type": "Point", "coordinates": [-72.4445624, -13.4799292]}}, {"id": "9", "type": "Feature", "properties": {"ELE_1": null, "FIXME_1": null, "NAME_1": null, "comment": null, "descriptio": null, "ele": null, "fixme": null, "name": "Paucartambo", "note": null, "osm_id": 292250901, "place": "town", "population": null, "source": "bing; MTC"}, "geometry": {"type": "Point", "coordinates": [-71.5959691, -13.3176052]}}, {"id": "15", "type": "Feature", "properties": {"ELE_1": null, "FIXME_1": null, "NAME_1": null, "comment": null, "descriptio": null, "ele": null, "fixme": null, "name": "Vista Allegre", "note": null, "osm_id": 415166319, "place": "hamlet", "population": null, "source": null}, "geometry": {"type": "Point", "coordinates": [-73.1503615, -13.0337609]}}, {"id": "25", "type": "Feature", "properties": {"ELE_1": null, "FIXME_1": null, "NAME_1": null, "comment": null, "descriptio": null, "ele": null, "fixme": null, "name": "Huayopata", "note": null, "osm_id": 415166332, "place": "village", "population": null, "source": null}, "geometry": {"type": "Point", "coordinates": [-72.5350317, -12.9967612]}}, {"id": "26", "type": "Feature", "properties": {"ELE_1": null, "FIXME_1": null, "NAME_1": null, "comment": null, "descriptio": null, "ele": null, "fixme": null, "name": "Amaybamba", "note": null, "osm_id": 415166333, "place": "village", "population": null, "source": null}, "geometry": {"type": "Point", "coordinates": [-72.516028, -13.0031619]}}, {"id": "30", "type": "Feature", "properties": {"ELE_1": null, "FIXME_1": null, "NAME_1": null, "comment": null, "descriptio": null, "ele": 3002.0, "fixme": null, "name": "San Luis", "note": null, "osm_id": 415166337, "place": "village", "population": null, "source": null}, "geometry": {"type": "Point", "coordinates": [-72.3903496, -13.0786543]}}, {"id": "33", "type": "Feature", "properties": {"ELE_1": null, "FIXME_1": null, "NAME_1": null, "comment": null, "descriptio": null, "ele": null, "fixme": null, "name": "Chaullay", "note": null, "osm_id": 420786661, "place": "village", "population": null, "source": null}, "geometry": {"type": "Point", "coordinates": [-72.6463198, -13.0061801]}}, {"id": "35", "type": "Feature", "properties": {"ELE_1": null, "FIXME_1": null, "NAME_1": null, "comment": null, "descriptio": null, "ele": null, "fixme": null, "name": "Paltaybamba", "note": null, "osm_id": 420846194, "place": "village", "population": null, "source": null}, "geometry": {"type": "Point", "coordinates": [-72.7265555, -13.0217307]}}, {"id": "39", "type": "Feature", "properties": {"ELE_1": null, "FIXME_1": null, "NAME_1": null, "comment": null, "descriptio": null, "ele": null, "fixme": null, "name": "Pucyura", "note": null, "osm_id": 420846198, "place": "hamlet", "population": null, "source": null}, "geometry": {"type": "Point", "coordinates": [-72.9340734, -13.0928986]}}, {"id": "46", "type": "Feature", "properties": {"ELE_1": null, "FIXME_1": null, "NAME_1": null, "comment": null, "descriptio": null, "ele": 2932.0, "fixme": null, "name": "Calca", "note": null, "osm_id": 436613486, "place": "town", "population": null, "source": null}, "geometry": {"type": "Point", "coordinates": [-71.9560084, -13.3216818]}}, {"id": "49", "type": "Feature", "properties": {"ELE_1": null, "FIXME_1": null, "NAME_1": null, "comment": null, "descriptio": null, "ele": null, "fixme": null, "name": "Urubamba", "note": null, "osm_id": 441008049, "place": "town", "population": null, "source": null}, "geometry": {"type": "Point", "coordinates": [-72.1159538, -13.3059361]}}, {"id": "64", "type": "Feature", "properties": {"ELE_1": null, "FIXME_1": null, "NAME_1": null, "comment": null, "descriptio": null, "ele": null, "fixme": null, "name": "Chaullay", "note": null, "osm_id": 497118624, "place": "village", "population": null, "source": null}, "geometry": {"type": "Point", "coordinates": [-72.665031, -13.3248581]}}, {"id": "68", "type": "Feature", "properties": {"ELE_1": null, "FIXME_1": null, "NAME_1": null, "comment": null, "descriptio": null, "ele": null, "fixme": null, "name": "Totora", "note": null, "osm_id": 633602381, "place": "village", "population": null, "source": null}, "geometry": {"type": "Point", "coordinates": [-72.7184747, -13.3319241]}}, {"id": "70", "type": "Feature", "properties": {"ELE_1": null, "FIXME_1": null, "NAME_1": null, "comment": null, "descriptio": null, "ele": null, "fixme": null, "name": "Occobamba", "note": null, "osm_id": 874430105, "place": "hamlet", "population": null, "source": null}, "geometry": {"type": "Point", "coordinates": [-71.1069347, -14.4240383]}}, {"id": "93", "type": "Feature", "properties": {"ELE_1": null, "FIXME_1": null, "NAME_1": null, "comment": null, "descriptio": null, "ele": null, "fixme": null, "name": "Huayllabamba", "note": null, "osm_id": 1112551948, "place": "hamlet", "population": null, "source": null}, "geometry": {"type": "Point", "coordinates": [-72.447039, -13.264304]}}, {"id": "94", "type": "Feature", "properties": {"ELE_1": null, "FIXME_1": null, "NAME_1": null, "comment": null, "descriptio": null, "ele": null, "fixme": null, "name": "Cusco", "note": null, "osm_id": 1230775156, "place": "state", "population": 1171403.0, "source": "GNS"}, "geometry": {"type": "Point", "coordinates": [-72.5, -12.5]}}, {"id": "96", "type": "Feature", "properties": {"ELE_1": null, "FIXME_1": null, "NAME_1": null, "comment": null, "descriptio": null, "ele": null, "fixme": null, "name": "Paucartambo", "note": null, "osm_id": 1237030048, "place": "region", "population": null, "source": "GNS"}, "geometry": {"type": "Point", "coordinates": [-71.5539961, -13.2000945]}}, {"id": "97", "type": "Feature", "properties": {"ELE_1": null, "FIXME_1": null, "NAME_1": null, "comment": null, "descriptio": null, "ele": null, "fixme": null, "name": "Calca", "note": null, "osm_id": 1237030055, "place": "region", "population": null, "source": "GNS"}, "geometry": {"type": "Point", "coordinates": [-72.058177, -12.9397785]}}, {"id": "100", "type": "Feature", "properties": {"ELE_1": null, "FIXME_1": null, "NAME_1": null, "comment": null, "descriptio": null, "ele": null, "fixme": null, "name": "Cusco", "note": null, "osm_id": 1237030089, "place": "region", "population": null, "source": "GNS"}, "geometry": {"type": "Point", "coordinates": [-71.9906371, -13.5542811]}}, {"id": "102", "type": "Feature", "properties": {"ELE_1": null, "FIXME_1": null, "NAME_1": null, "comment": null, "descriptio": null, "ele": null, "fixme": null, "name": "Acomayo", "note": null, "osm_id": 1237030094, "place": "region", "population": null, "source": "GNS"}, "geometry": {"type": "Point", "coordinates": [-71.666667, -13.916667]}}, {"id": "104", "type": "Feature", "properties": {"ELE_1": null, "FIXME_1": null, "NAME_1": null, "comment": null, "descriptio": null, "ele": null, "fixme": null, "name": "Anta", "note": null, "osm_id": 1237030146, "place": "region", "population": null, "source": "GNS"}, "geometry": {"type": "Point", "coordinates": [-72.333333, -13.5]}}, {"id": "105", "type": "Feature", "properties": {"ELE_1": null, "FIXME_1": null, "NAME_1": null, "comment": null, "descriptio": null, "ele": null, "fixme": null, "name": "Urubamba", "note": null, "osm_id": 1237030159, "place": "region", "population": null, "source": "GNS"}, "geometry": {"type": "Point", "coordinates": [-72.2646684, -13.2292798]}}, {"id": "106", "type": "Feature", "properties": {"ELE_1": null, "FIXME_1": null, "NAME_1": null, "comment": null, "descriptio": null, "ele": null, "fixme": null, "name": "Paruro", "note": null, "osm_id": 1237030164, "place": "region", "population": null, "source": "GNS"}, "geometry": {"type": "Point", "coordinates": [-71.916667, -13.916667]}}, {"id": "108", "type": "Feature", "properties": {"ELE_1": null, "FIXME_1": null, "NAME_1": null, "comment": null, "descriptio": null, "ele": null, "fixme": null, "name": "San Pablo", "note": null, "osm_id": 1342584387, "place": "village", "population": null, "source": null}, "geometry": {"type": "Point", "coordinates": [-72.6191841, -13.0245807]}}, {"id": "111", "type": "Feature", "properties": {"ELE_1": null, "FIXME_1": null, "NAME_1": null, "comment": null, "descriptio": null, "ele": null, "fixme": null, "name": "Naranjal", "note": null, "osm_id": 1342584529, "place": "hamlet", "population": null, "source": null}, "geometry": {"type": "Point", "coordinates": [-72.6497919, -13.0089857]}}, {"id": "112", "type": "Feature", "properties": {"ELE_1": null, "FIXME_1": null, "NAME_1": null, "comment": null, "descriptio": null, "ele": null, "fixme": null, "name": "Colpani", "note": null, "osm_id": 1342584549, "place": "hamlet", "population": null, "source": null}, "geometry": {"type": "Point", "coordinates": [-72.5857885, -13.1354385]}}, {"id": "113", "type": "Feature", "properties": {"ELE_1": null, "FIXME_1": null, "NAME_1": null, "comment": null, "descriptio": null, "ele": null, "fixme": null, "name": "Cuquipata", "note": null, "osm_id": 1347759176, "place": "village", "population": null, "source": null}, "geometry": {"type": "Point", "coordinates": [-72.6848817, -13.0256929]}}, {"id": "118", "type": "Feature", "properties": {"ELE_1": null, "FIXME_1": null, "NAME_1": null, "comment": null, "descriptio": null, "ele": null, "fixme": null, "name": "Vilcabamba", "note": null, "osm_id": 1356891560, "place": "village", "population": null, "source": "local knowledge"}, "geometry": {"type": "Point", "coordinates": [-72.9767532, -13.1203657]}}, {"id": "124", "type": "Feature", "properties": {"ELE_1": null, "FIXME_1": null, "NAME_1": null, "comment": null, "descriptio": null, "ele": null, "fixme": null, "name": "Ttio", "note": null, "osm_id": 1468345493, "place": "village", "population": null, "source": null}, "geometry": {"type": "Point", "coordinates": [-71.5733701, -13.7714774]}}, {"id": "127", "type": "Feature", "properties": {"ELE_1": null, "FIXME_1": null, "NAME_1": null, "comment": null, "descriptio": null, "ele": null, "fixme": null, "name": "San Pablo", "note": null, "osm_id": 1475916689, "place": "village", "population": null, "source": null}, "geometry": {"type": "Point", "coordinates": [-71.31498, -14.201866]}}, {"id": "128", "type": "Feature", "properties": {"ELE_1": null, "FIXME_1": null, "NAME_1": null, "comment": null, "descriptio": null, "ele": null, "fixme": null, "name": "Occobamba", "note": null, "osm_id": 1475916692, "place": "village", "population": null, "source": null}, "geometry": {"type": "Point", "coordinates": [-71.4992325, -13.9568052]}}, {"id": "137", "type": "Feature", "properties": {"ELE_1": null, "FIXME_1": null, "NAME_1": null, "comment": null, "descriptio": null, "ele": null, "fixme": null, "name": "Llallahui", "note": null, "osm_id": 1477959488, "place": "village", "population": null, "source": null}, "geometry": {"type": "Point", "coordinates": [-71.1175506, -14.4110271]}}, {"id": "156", "type": "Feature", "properties": {"ELE_1": null, "FIXME_1": null, "NAME_1": null, "comment": null, "descriptio": null, "ele": null, "fixme": null, "name": "Vista Alegre", "note": null, "osm_id": 1791478800, "place": "hamlet", "population": null, "source": null}, "geometry": {"type": "Point", "coordinates": [-72.1347557, -14.5725101]}}, {"id": "178", "type": "Feature", "properties": {"ELE_1": null, "FIXME_1": null, "NAME_1": null, "comment": null, "descriptio": null, "ele": null, "fixme": null, "name": "Cota\u00f1a", "note": null, "osm_id": 2182269544, "place": "hamlet", "population": null, "source": null}, "geometry": {"type": "Point", "coordinates": [-72.0147418, -14.0150085]}}, {"id": "180", "type": "Feature", "properties": {"ELE_1": null, "FIXME_1": null, "NAME_1": null, "comment": null, "descriptio": null, "ele": null, "fixme": null, "name": "San Isidro", "note": null, "osm_id": 2186590421, "place": "hamlet", "population": null, "source": null}, "geometry": {"type": "Point", "coordinates": [-72.2682643, -13.2582937]}}, {"id": "183", "type": "Feature", "properties": {"ELE_1": null, "FIXME_1": null, "NAME_1": null, "comment": null, "descriptio": null, "ele": null, "fixme": null, "name": "Huayllabamba", "note": null, "osm_id": 2234807525, "place": "village", "population": null, "source": "MTC"}, "geometry": {"type": "Point", "coordinates": [-72.0645932, -13.3381165]}}, {"id": "188", "type": "Feature", "properties": {"ELE_1": null, "FIXME_1": null, "NAME_1": null, "comment": null, "descriptio": null, "ele": null, "fixme": null, "name": "Accha", "note": null, "osm_id": 2314230985, "place": "town", "population": null, "source": null}, "geometry": {"type": "Point", "coordinates": [-71.8315418, -13.971146]}}, {"id": "189", "type": "Feature", "properties": {"ELE_1": null, "FIXME_1": null, "NAME_1": null, "comment": null, "descriptio": null, "ele": null, "fixme": null, "name": "Paruro", "note": null, "osm_id": 2314231210, "place": "town", "population": null, "source": "bing; MTC"}, "geometry": {"type": "Point", "coordinates": [-71.8474048, -13.761311]}}, {"id": "193", "type": "Feature", "properties": {"ELE_1": null, "FIXME_1": null, "NAME_1": null, "comment": null, "descriptio": null, "ele": 3215.0, "fixme": null, "name": "Acomayo", "note": null, "osm_id": 2317137705, "place": "town", "population": null, "source": "bing; MTC"}, "geometry": {"type": "Point", "coordinates": [-71.6834556, -13.9192017]}}, {"id": "195", "type": "Feature", "properties": {"ELE_1": null, "FIXME_1": null, "NAME_1": null, "comment": null, "descriptio": null, "ele": null, "fixme": null, "name": "Pitumarca", "note": null, "osm_id": 2318482351, "place": "village", "population": null, "source": null}, "geometry": {"type": "Point", "coordinates": [-71.6421455, -13.948169]}}, {"id": "196", "type": "Feature", "properties": {"ELE_1": null, "FIXME_1": null, "NAME_1": null, "comment": null, "descriptio": null, "ele": null, "fixme": null, "name": "Porvenir", "note": null, "osm_id": 2318531854, "place": "hamlet", "population": null, "source": null}, "geometry": {"type": "Point", "coordinates": [-71.3090151, -14.4079996]}}, {"id": "209", "type": "Feature", "properties": {"ELE_1": null, "FIXME_1": null, "NAME_1": null, "comment": null, "descriptio": null, "ele": null, "fixme": null, "name": "Pichigua", "note": null, "osm_id": 2320341783, "place": "village", "population": null, "source": null}, "geometry": {"type": "Point", "coordinates": [-71.547646, -13.4539564]}}, {"id": "230", "type": "Feature", "properties": {"ELE_1": null, "FIXME_1": null, "NAME_1": null, "comment": null, "descriptio": null, "ele": null, "fixme": null, "name": "Munaypata", "note": null, "osm_id": 2348600578, "place": "village", "population": null, "source": null}, "geometry": {"type": "Point", "coordinates": [-72.1482838, -13.427823]}}, {"id": "233", "type": "Feature", "properties": {"ELE_1": null, "FIXME_1": null, "NAME_1": null, "comment": null, "descriptio": null, "ele": null, "fixme": null, "name": "Ttio", "note": null, "osm_id": 2349410224, "place": "hamlet", "population": null, "source": null}, "geometry": {"type": "Point", "coordinates": [-71.7982913, -13.2440971]}}, {"id": "251", "type": "Feature", "properties": {"ELE_1": null, "FIXME_1": null, "NAME_1": null, "comment": null, "descriptio": null, "ele": null, "fixme": null, "name": "Paucarpata", "note": null, "osm_id": 2357164933, "place": "hamlet", "population": null, "source": null}, "geometry": {"type": "Point", "coordinates": [-71.9950994, -13.6654163]}}, {"id": "257", "type": "Feature", "properties": {"ELE_1": null, "FIXME_1": null, "NAME_1": null, "comment": null, "descriptio": null, "ele": 1132.0, "fixme": null, "name": "Quebrada Honda", "note": null, "osm_id": 2360500514, "place": "town", "population": null, "source": "http://www.mtc.gob.pe/estadisticas/estadistica/mapas/TRANSPORTES/VIAL/08_CUSCO_VIAL.pdf"}, "geometry": {"type": "Point", "coordinates": [-72.2775948, -12.6819116]}}, {"id": "276", "type": "Feature", "properties": {"ELE_1": null, "FIXME_1": null, "NAME_1": null, "comment": null, "descriptio": null, "ele": null, "fixme": null, "name": "Monterrico", "note": null, "osm_id": 2361392397, "place": "village", "population": null, "source": "http://www.mtc.gob.pe/estadisticas/estadistica/mapas/TRANSPORTES/VIAL/05_AYACUCHO_VIAL.pdf"}, "geometry": {"type": "Point", "coordinates": [-73.5922783, -12.8247685]}}, {"id": "286", "type": "Feature", "properties": {"ELE_1": null, "FIXME_1": null, "NAME_1": null, "comment": null, "descriptio": null, "ele": null, "fixme": null, "name": "Pichigua", "note": null, "osm_id": 2367583930, "place": "village", "population": null, "source": "http://www.mtc.gob.pe/estadisticas/estadistica/mapas/TRANSPORTES/VIAL/08_CUSCO_VIAL.pdf"}, "geometry": {"type": "Point", "coordinates": [-71.4063142, -14.6777982]}}, {"id": "288", "type": "Feature", "properties": {"ELE_1": null, "FIXME_1": null, "NAME_1": null, "comment": null, "descriptio": null, "ele": 3422.0, "fixme": null, "name": "Anta", "note": null, "osm_id": 2367668493, "place": "town", "population": null, "source": "bing; MTC"}, "geometry": {"type": "Point", "coordinates": [-72.1487471, -13.4715992]}}, {"id": "295", "type": "Feature", "properties": {"ELE_1": null, "FIXME_1": null, "NAME_1": null, "comment": null, "descriptio": null, "ele": 3379.0, "fixme": null, "name": "Pucyura", "note": null, "osm_id": 2370630303, "place": "village", "population": null, "source": "http://www.mtc.gob.pe/estadisticas/estadistica/mapas/TRANSPORTES/VIAL/08_CUSCO_VIAL.pdf"}, "geometry": {"type": "Point", "coordinates": [-72.1113614, -13.4793288]}}, {"id": "300", "type": "Feature", "properties": {"ELE_1": null, "FIXME_1": null, "NAME_1": null, "comment": null, "descriptio": null, "ele": null, "fixme": null, "name": "Combapata", "note": null, "osm_id": 2377067616, "place": "village", "population": null, "source": null}, "geometry": {"type": "Point", "coordinates": [-72.3059645, -12.6460037]}}, {"id": "302", "type": "Feature", "properties": {"ELE_1": null, "FIXME_1": null, "NAME_1": null, "comment": null, "descriptio": null, "ele": null, "fixme": null, "name": "Huambutio", "note": null, "osm_id": 2377095148, "place": "village", "population": null, "source": "http://www.mtc.gob.pe/estadisticas/estadistica/mapas/TRANSPORTES/VIAL/08_CUSCO_VIAL.pdf"}, "geometry": {"type": "Point", "coordinates": [-71.7244937, -13.597717]}}, {"id": "306", "type": "Feature", "properties": {"ELE_1": null, "FIXME_1": null, "NAME_1": null, "comment": null, "descriptio": null, "ele": null, "fixme": null, "name": "Anchihuay", "note": null, "osm_id": 2378352749, "place": "village", "population": null, "source": "bing"}, "geometry": {"type": "Point", "coordinates": [-72.7313739, -12.5050812]}}, {"id": "308", "type": "Feature", "properties": {"ELE_1": null, "FIXME_1": null, "NAME_1": null, "comment": null, "descriptio": null, "ele": null, "fixme": null, "name": "Pitumarca", "note": null, "osm_id": 2642792726, "place": "town", "population": null, "source": null}, "geometry": {"type": "Point", "coordinates": [-71.4173328, -13.9803842]}}, {"id": "316", "type": "Feature", "properties": {"ELE_1": null, "FIXME_1": null, "NAME_1": null, "comment": null, "descriptio": null, "ele": null, "fixme": null, "name": "Naranjal", "note": null, "osm_id": 2812088372, "place": "village", "population": null, "source": null}, "geometry": {"type": "Point", "coordinates": [-73.281017, -13.3278245]}}, {"id": "319", "type": "Feature", "properties": {"ELE_1": null, "FIXME_1": null, "NAME_1": null, "comment": null, "descriptio": null, "ele": null, "fixme": null, "name": "San Martin", "note": null, "osm_id": 2812088375, "place": "village", "population": null, "source": null}, "geometry": {"type": "Point", "coordinates": [-73.282164, -13.312471]}}, {"id": "335", "type": "Feature", "properties": {"ELE_1": null, "FIXME_1": null, "NAME_1": null, "comment": null, "descriptio": null, "ele": null, "fixme": null, "name": "Santa Elena", "note": null, "osm_id": 2963564918, "place": "hamlet", "population": null, "source": "local knowledge"}, "geometry": {"type": "Point", "coordinates": [-72.9847872, -12.6318376]}}, {"id": "340", "type": "Feature", "properties": {"ELE_1": null, "FIXME_1": null, "NAME_1": null, "comment": null, "descriptio": null, "ele": null, "fixme": null, "name": "Yavero Chico", "note": null, "osm_id": 2965485316, "place": "hamlet", "population": null, "source": "MapBox; http://www.mtc.gob.pe/portal/transportes/red_vial/mapas_redvial.htm"}, "geometry": {"type": "Point", "coordinates": [-72.5075867, -12.5192772]}}, {"id": "343", "type": "Feature", "properties": {"ELE_1": null, "FIXME_1": null, "NAME_1": null, "comment": null, "descriptio": null, "ele": null, "fixme": null, "name": "Tupac Amaru", "note": null, "osm_id": 2965550086, "place": "hamlet", "population": null, "source": "MapBox; http://www.mtc.gob.pe/portal/transportes/red_vial/mapas_redvial.htm"}, "geometry": {"type": "Point", "coordinates": [-72.5004931, -12.4254774]}}, {"id": "356", "type": "Feature", "properties": {"ELE_1": null, "FIXME_1": null, "NAME_1": null, "comment": null, "descriptio": null, "ele": null, "fixme": null, "name": "Cruzpata", "note": null, "osm_id": 2973182960, "place": "village", "population": null, "source": null}, "geometry": {"type": "Point", "coordinates": [-72.1169342, -13.3836909]}}, {"id": "368", "type": "Feature", "properties": {"ELE_1": null, "FIXME_1": null, "NAME_1": null, "comment": null, "descriptio": null, "ele": null, "fixme": null, "name": "Huaynapata", "note": null, "osm_id": 2985246373, "place": "hamlet", "population": null, "source": null}, "geometry": {"type": "Point", "coordinates": [-71.4804205, -13.4507977]}}, {"id": "377", "type": "Feature", "properties": {"ELE_1": null, "FIXME_1": null, "NAME_1": null, "comment": null, "descriptio": null, "ele": null, "fixme": null, "name": "Limonchayoc", "note": null, "osm_id": 2988653935, "place": "hamlet", "population": null, "source": "MapBox; MTC"}, "geometry": {"type": "Point", "coordinates": [-72.5121034, -12.6307657]}}, {"id": "379", "type": "Feature", "properties": {"ELE_1": null, "FIXME_1": null, "NAME_1": null, "comment": null, "descriptio": null, "ele": null, "fixme": null, "name": "Paucarpata", "note": null, "osm_id": 2988663363, "place": "hamlet", "population": null, "source": "MTC"}, "geometry": {"type": "Point", "coordinates": [-72.0130906, -13.0124348]}}, {"id": "385", "type": "Feature", "properties": {"ELE_1": null, "FIXME_1": null, "NAME_1": null, "comment": null, "descriptio": null, "ele": null, "fixme": null, "name": "Surimana", "note": null, "osm_id": 2990047719, "place": "village", "population": null, "source": "MTC"}, "geometry": {"type": "Point", "coordinates": [-71.5749956, -14.153459]}}, {"id": "386", "type": "Feature", "properties": {"ELE_1": null, "FIXME_1": null, "NAME_1": null, "comment": null, "descriptio": null, "ele": null, "fixme": null, "name": "Totora", "note": null, "osm_id": 2990047720, "place": "village", "population": null, "source": "MTC"}, "geometry": {"type": "Point", "coordinates": [-71.5813587, -14.1674019]}}, {"id": "388", "type": "Feature", "properties": {"ELE_1": null, "FIXME_1": null, "NAME_1": null, "comment": null, "descriptio": null, "ele": null, "fixme": null, "name": "Cota\u00f1a", "note": null, "osm_id": 2990137375, "place": "village", "population": null, "source": "MTC"}, "geometry": {"type": "Point", "coordinates": [-71.4899792, -14.1938656]}}, {"id": "391", "type": "Feature", "properties": {"ELE_1": null, "FIXME_1": null, "NAME_1": null, "comment": null, "descriptio": null, "ele": null, "fixme": null, "name": "San Juan", "note": null, "osm_id": 2991143949, "place": "village", "population": null, "source": null}, "geometry": {"type": "Point", "coordinates": [-72.0740654, -13.2823079]}}, {"id": "393", "type": "Feature", "properties": {"ELE_1": null, "FIXME_1": null, "NAME_1": null, "comment": null, "descriptio": null, "ele": null, "fixme": null, "name": "Chanca", "note": null, "osm_id": 3001431768, "place": "village", "population": null, "source": "MTC"}, "geometry": {"type": "Point", "coordinates": [-72.0723635, -13.6507817]}}, {"id": "400", "type": "Feature", "properties": {"ELE_1": null, "FIXME_1": null, "NAME_1": null, "comment": null, "descriptio": null, "ele": null, "fixme": null, "name": "Tucsa", "note": null, "osm_id": 3005640624, "place": "hamlet", "population": null, "source": "bing; MTC"}, "geometry": {"type": "Point", "coordinates": [-71.4392896, -14.4107398]}}, {"id": "422", "type": "Feature", "properties": {"ELE_1": null, "FIXME_1": null, "NAME_1": null, "comment": null, "descriptio": null, "ele": null, "fixme": null, "name": "Yanahuara", "note": null, "osm_id": 3025596427, "place": "village", "population": null, "source": null}, "geometry": {"type": "Point", "coordinates": [-72.1862775, -13.2766857]}}, {"id": "423", "type": "Feature", "properties": {"ELE_1": null, "FIXME_1": null, "NAME_1": null, "comment": null, "descriptio": null, "ele": 840.0, "fixme": null, "name": "Porvenir", "note": null, "osm_id": 3033423007, "place": "village", "population": 250.0, "source": "gps;DEVIDA"}, "geometry": {"type": "Point", "coordinates": [-73.5320106, -12.996277]}}, {"id": "424", "type": "Feature", "properties": {"ELE_1": null, "FIXME_1": null, "NAME_1": null, "comment": null, "descriptio": null, "ele": null, "fixme": null, "name": "Agua Dulce", "note": null, "osm_id": 3033423154, "place": "village", "population": null, "source": null}, "geometry": {"type": "Point", "coordinates": [-73.5306373, -12.9816619]}}, {"id": "426", "type": "Feature", "properties": {"ELE_1": null, "FIXME_1": null, "NAME_1": null, "comment": null, "descriptio": null, "ele": 724.0, "fixme": null, "name": "Limatambo", "note": null, "osm_id": 3033638704, "place": "hamlet", "population": 750.0, "source": "gps;DEVIDA"}, "geometry": {"type": "Point", "coordinates": [-73.5089226, -12.9587645]}}, {"id": "428", "type": "Feature", "properties": {"ELE_1": null, "FIXME_1": null, "NAME_1": null, "comment": null, "descriptio": null, "ele": null, "fixme": null, "name": "Pampallacta", "note": null, "osm_id": 3035757085, "place": "hamlet", "population": null, "source": null}, "geometry": {"type": "Point", "coordinates": [-72.3015319, -13.2134648]}}, {"id": "430", "type": "Feature", "properties": {"ELE_1": null, "FIXME_1": null, "NAME_1": null, "comment": null, "descriptio": null, "ele": null, "fixme": null, "name": "Colpani", "note": null, "osm_id": 3035769196, "place": "hamlet", "population": null, "source": null}, "geometry": {"type": "Point", "coordinates": [-72.2908889, -13.1861241]}}, {"id": "449", "type": "Feature", "properties": {"ELE_1": null, "FIXME_1": null, "NAME_1": null, "comment": null, "descriptio": null, "ele": null, "fixme": null, "name": "Yanacancha", "note": null, "osm_id": 3057762591, "place": "hamlet", "population": null, "source": null}, "geometry": {"type": "Point", "coordinates": [-71.1583204, -13.6297834]}}, {"id": "452", "type": "Feature", "properties": {"ELE_1": null, "FIXME_1": null, "NAME_1": null, "comment": null, "descriptio": null, "ele": null, "fixme": null, "name": "Phinaya", "note": null, "osm_id": 3058016479, "place": "village", "population": null, "source": null}, "geometry": {"type": "Point", "coordinates": [-70.9734646, -13.8965638]}}, {"id": "464", "type": "Feature", "properties": {"ELE_1": null, "FIXME_1": null, "NAME_1": null, "comment": null, "descriptio": null, "ele": null, "fixme": null, "name": "Curca", "note": null, "osm_id": 3079667235, "place": "hamlet", "population": null, "source": null}, "geometry": {"type": "Point", "coordinates": [-72.0850525, -14.1425712]}}, {"id": "469", "type": "Feature", "properties": {"ELE_1": null, "FIXME_1": null, "NAME_1": null, "comment": null, "descriptio": null, "ele": null, "fixme": null, "name": "Sayhua", "note": null, "osm_id": 3083349383, "place": "hamlet", "population": null, "source": "bing"}, "geometry": {"type": "Point", "coordinates": [-71.6021538, -14.1418131]}}, {"id": "470", "type": "Feature", "properties": {"ELE_1": null, "FIXME_1": null, "NAME_1": null, "comment": null, "descriptio": null, "ele": null, "fixme": null, "name": "San Juan", "note": null, "osm_id": 3083349430, "place": "village", "population": null, "source": "bing; MTC"}, "geometry": {"type": "Point", "coordinates": [-71.6646538, -14.1153269]}}, {"id": "502", "type": "Feature", "properties": {"ELE_1": null, "FIXME_1": null, "NAME_1": null, "comment": null, "descriptio": null, "ele": null, "fixme": null, "name": "Ninamarca", "note": null, "osm_id": 3100482683, "place": "village", "population": null, "source": "bing; MTC"}, "geometry": {"type": "Point", "coordinates": [-71.5954767, -13.4882837]}}, {"id": "503", "type": "Feature", "properties": {"ELE_1": null, "FIXME_1": null, "NAME_1": null, "comment": null, "descriptio": null, "ele": null, "fixme": null, "name": "Tiracanchi", "note": null, "osm_id": 3100484465, "place": "village", "population": null, "source": "bing"}, "geometry": {"type": "Point", "coordinates": [-71.7098075, -13.4416171]}}, {"id": "504", "type": "Feature", "properties": {"ELE_1": null, "FIXME_1": null, "NAME_1": null, "comment": null, "descriptio": null, "ele": null, "fixme": null, "name": "Tiracanchi", "note": null, "osm_id": 3100484477, "place": "village", "population": null, "source": "bing"}, "geometry": {"type": "Point", "coordinates": [-71.6950828, -13.4418723]}}, {"id": "506", "type": "Feature", "properties": {"ELE_1": null, "FIXME_1": null, "NAME_1": null, "comment": null, "descriptio": null, "ele": null, "fixme": null, "name": "Accha", "note": null, "osm_id": 3100484868, "place": "hamlet", "population": null, "source": "bing"}, "geometry": {"type": "Point", "coordinates": [-71.6744474, -13.4457804]}}, {"id": "510", "type": "Feature", "properties": {"ELE_1": null, "FIXME_1": "name", "NAME_1": null, "comment": null, "descriptio": null, "ele": null, "fixme": null, "name": "Ninamarca", "note": null, "osm_id": 3100788644, "place": "village", "population": null, "source": "bing"}, "geometry": {"type": "Point", "coordinates": [-71.6204425, -13.3876071]}}, {"id": "516", "type": "Feature", "properties": {"ELE_1": null, "FIXME_1": null, "NAME_1": null, "comment": null, "descriptio": null, "ele": null, "fixme": null, "name": "Chanca", "note": null, "osm_id": 3101784229, "place": "hamlet", "population": null, "source": null}, "geometry": {"type": "Point", "coordinates": [-71.677692, -13.7148414]}}, {"id": "522", "type": "Feature", "properties": {"ELE_1": null, "FIXME_1": null, "NAME_1": null, "comment": null, "descriptio": null, "ele": null, "fixme": null, "name": "Totora", "note": null, "osm_id": 3121102136, "place": "village", "population": null, "source": "bing; MTC"}, "geometry": {"type": "Point", "coordinates": [-72.1064759, -13.5728401]}}, {"id": "525", "type": "Feature", "properties": {"ELE_1": null, "FIXME_1": null, "NAME_1": null, "comment": null, "descriptio": null, "ele": null, "fixme": null, "name": "Amaybamba", "note": null, "osm_id": 3122807135, "place": "village", "population": null, "source": "bing"}, "geometry": {"type": "Point", "coordinates": [-73.2645271, -13.2888929]}}, {"id": "531", "type": "Feature", "properties": {"ELE_1": null, "FIXME_1": null, "NAME_1": null, "comment": null, "descriptio": null, "ele": null, "fixme": null, "name": "Miraflores", "note": null, "osm_id": 3142058818, "place": "hamlet", "population": null, "source": null}, "geometry": {"type": "Point", "coordinates": [-73.7888889, -12.6306116]}}, {"id": "532", "type": "Feature", "properties": {"ELE_1": null, "FIXME_1": null, "NAME_1": null, "comment": null, "descriptio": null, "ele": null, "fixme": null, "name": "Anchihuay", "note": null, "osm_id": 3148947553, "place": "village", "population": null, "source": null}, "geometry": {"type": "Point", "coordinates": [-73.581673, -12.8633126]}}, {"id": "534", "type": "Feature", "properties": {"ELE_1": null, "FIXME_1": null, "NAME_1": null, "comment": null, "descriptio": null, "ele": null, "fixme": null, "name": "Urco", "note": null, "osm_id": 3151852370, "place": "hamlet", "population": null, "source": null}, "geometry": {"type": "Point", "coordinates": [-71.9710918, -13.3248813]}}, {"id": "535", "type": "Feature", "properties": {"ELE_1": null, "FIXME_1": null, "NAME_1": null, "comment": null, "descriptio": null, "ele": null, "fixme": null, "name": "Yanahuara", "note": null, "osm_id": 3151852373, "place": "hamlet", "population": null, "source": null}, "geometry": {"type": "Point", "coordinates": [-72.1742147, -13.2749512]}}, {"id": "542", "type": "Feature", "properties": {"ELE_1": null, "FIXME_1": null, "NAME_1": null, "comment": null, "descriptio": null, "ele": null, "fixme": null, "name": "Mollebamba", "note": null, "osm_id": 3161798761, "place": "village", "population": null, "source": null}, "geometry": {"type": "Point", "coordinates": [-71.6031471, -13.7287021]}}, {"id": "578", "type": "Feature", "properties": {"ELE_1": null, "FIXME_1": null, "NAME_1": null, "comment": null, "descriptio": null, "ele": null, "fixme": null, "name": "San Martin", "note": null, "osm_id": 3484813126, "place": "village", "population": null, "source": "bing"}, "geometry": {"type": "Point", "coordinates": [-72.4096764, -12.4347011]}}, {"id": "582", "type": "Feature", "properties": {"ELE_1": null, "FIXME_1": null, "NAME_1": null, "comment": null, "descriptio": null, "ele": null, "fixme": null, "name": "San Lorenzo", "note": null, "osm_id": 3485284669, "place": "village", "population": null, "source": "bing"}, "geometry": {"type": "Point", "coordinates": [-72.3902999, -12.6742212]}}, {"id": "584", "type": "Feature", "properties": {"ELE_1": null, "FIXME_1": null, "NAME_1": null, "comment": null, "descriptio": null, "ele": null, "fixme": null, "name": "Santa Elena", "note": null, "osm_id": 3490844737, "place": "hamlet", "population": null, "source": "bing"}, "geometry": {"type": "Point", "coordinates": [-72.3043286, -12.7598035]}}, {"id": "612", "type": "Feature", "properties": {"ELE_1": null, "FIXME_1": null, "NAME_1": null, "comment": null, "descriptio": null, "ele": null, "fixme": null, "name": "Hualla", "note": null, "osm_id": 3500937555, "place": "hamlet", "population": null, "source": null}, "geometry": {"type": "Point", "coordinates": [-71.1794072, -15.1537726]}}, {"id": "613", "type": "Feature", "properties": {"ELE_1": null, "FIXME_1": null, "NAME_1": null, "comment": null, "descriptio": null, "ele": null, "fixme": null, "name": "Huancane", "note": null, "osm_id": 3500937559, "place": "hamlet", "population": null, "source": null}, "geometry": {"type": "Point", "coordinates": [-71.4807162, -14.9866399]}}, {"id": "635", "type": "Feature", "properties": {"ELE_1": null, "FIXME_1": null, "NAME_1": null, "comment": null, "descriptio": null, "ele": null, "fixme": null, "name": "Cala Cala", "note": null, "osm_id": 3502635886, "place": "hamlet", "population": null, "source": null}, "geometry": {"type": "Point", "coordinates": [-71.6939737, -15.0987474]}}, {"id": "648", "type": "Feature", "properties": {"ELE_1": null, "FIXME_1": null, "NAME_1": null, "comment": null, "descriptio": null, "ele": null, "fixme": null, "name": "Ichucana", "note": null, "osm_id": 3502636490, "place": "hamlet", "population": null, "source": null}, "geometry": {"type": "Point", "coordinates": [-71.8465131, -14.9139881]}}, {"id": "659", "type": "Feature", "properties": {"ELE_1": null, "FIXME_1": null, "NAME_1": null, "comment": null, "descriptio": null, "ele": null, "fixme": null, "name": "Rosaspata", "note": null, "osm_id": 3502636674, "place": "hamlet", "population": null, "source": null}, "geometry": {"type": "Point", "coordinates": [-71.6017367, -15.1538515]}}, {"id": "678", "type": "Feature", "properties": {"ELE_1": null, "FIXME_1": null, "NAME_1": null, "comment": null, "descriptio": null, "ele": null, "fixme": null, "name": "Palestina Baja", "note": null, "osm_id": 3505776745, "place": "village", "population": null, "source": "bing"}, "geometry": {"type": "Point", "coordinates": [-73.5774865, -12.8294385]}}, {"id": "680", "type": "Feature", "properties": {"ELE_1": null, "FIXME_1": null, "NAME_1": null, "comment": null, "descriptio": null, "ele": 95.0, "fixme": null, "name": "Palestina Baja", "note": null, "osm_id": 3505776962, "place": "village", "population": 950.0, "source": "bing;gps;DEVIDA"}, "geometry": {"type": "Point", "coordinates": [-73.5798929, -12.8358671]}}, {"id": "691", "type": "Feature", "properties": {"ELE_1": null, "FIXME_1": null, "NAME_1": null, "comment": null, "descriptio": null, "ele": 744.0, "fixme": null, "name": "Villa Virgen", "note": null, "osm_id": 3505782009, "place": "town", "population": 900.0, "source": "bing;gps;DEVIDA"}, "geometry": {"type": "Point", "coordinates": [-73.5127661, -13.0023279]}}, {"id": "692", "type": "Feature", "properties": {"ELE_1": null, "FIXME_1": null, "NAME_1": null, "comment": null, "descriptio": null, "ele": null, "fixme": null, "name": "Lechemayo", "note": null, "osm_id": 3505782020, "place": "village", "population": null, "source": "bing"}, "geometry": {"type": "Point", "coordinates": [-73.5138694, -13.0088394]}}, {"id": "701", "type": "Feature", "properties": {"ELE_1": null, "FIXME_1": null, "NAME_1": null, "comment": null, "descriptio": null, "ele": null, "fixme": null, "name": "Las Palmas", "note": null, "osm_id": 3508385625, "place": "village", "population": null, "source": "bing"}, "geometry": {"type": "Point", "coordinates": [-73.767743, -12.6519315]}}, {"id": "708", "type": "Feature", "properties": {"ELE_1": null, "FIXME_1": null, "NAME_1": null, "comment": null, "descriptio": null, "ele": null, "fixme": null, "name": "Miraflores", "note": null, "osm_id": 3508437236, "place": "village", "population": null, "source": "bing; MTC"}, "geometry": {"type": "Point", "coordinates": [-72.5758094, -12.7500766]}}, {"id": "709", "type": "Feature", "properties": {"ELE_1": null, "FIXME_1": null, "NAME_1": null, "comment": null, "descriptio": null, "ele": null, "fixme": null, "name": "Quebrada Honda", "note": null, "osm_id": 3508438715, "place": "hamlet", "population": null, "source": "bing; MTC"}, "geometry": {"type": "Point", "coordinates": [-72.6746488, -12.8227759]}}, {"id": "711", "type": "Feature", "properties": {"ELE_1": null, "FIXME_1": null, "NAME_1": null, "comment": null, "descriptio": null, "ele": null, "fixme": null, "name": "Ccochapampa", "note": null, "osm_id": 3508438717, "place": "village", "population": null, "source": "MapBox;MTC"}, "geometry": {"type": "Point", "coordinates": [-72.5622159, -12.7212355]}}, {"id": "716", "type": "Feature", "properties": {"ELE_1": null, "FIXME_1": null, "NAME_1": null, "comment": null, "descriptio": null, "ele": null, "fixme": null, "name": "Cala Cala", "note": null, "osm_id": 3518597695, "place": "hamlet", "population": null, "source": null}, "geometry": {"type": "Point", "coordinates": [-71.9414439, -14.7524258]}}, {"id": "728", "type": "Feature", "properties": {"ELE_1": null, "FIXME_1": null, "NAME_1": null, "comment": null, "descriptio": null, "ele": null, "fixme": null, "name": "Ichucana", "note": null, "osm_id": 3518597750, "place": "hamlet", "population": null, "source": null}, "geometry": {"type": "Point", "coordinates": [-71.908994, -14.7959737]}}, {"id": "740", "type": "Feature", "properties": {"ELE_1": null, "FIXME_1": null, "NAME_1": null, "comment": null, "descriptio": null, "ele": null, "fixme": null, "name": "Rumi Rumi", "note": null, "osm_id": 3518598212, "place": "hamlet", "population": null, "source": null}, "geometry": {"type": "Point", "coordinates": [-71.9487544, -14.7478006]}}, {"id": "741", "type": "Feature", "properties": {"ELE_1": null, "FIXME_1": null, "NAME_1": null, "comment": null, "descriptio": null, "ele": null, "fixme": null, "name": "Sayhua", "note": null, "osm_id": 3518598217, "place": "hamlet", "population": null, "source": null}, "geometry": {"type": "Point", "coordinates": [-72.1146773, -14.8535736]}}, {"id": "759", "type": "Feature", "properties": {"ELE_1": null, "FIXME_1": null, "NAME_1": null, "comment": null, "descriptio": null, "ele": null, "fixme": null, "name": "Cedros", "note": null, "osm_id": 3524079845, "place": "hamlet", "population": null, "source": "bing"}, "geometry": {"type": "Point", "coordinates": [-71.7636897, -13.0610295]}}, {"id": "780", "type": "Feature", "properties": {"ELE_1": null, "FIXME_1": "name", "NAME_1": null, "comment": null, "descriptio": null, "ele": null, "fixme": null, "name": "Yuracmayo", "note": null, "osm_id": 3538215926, "place": "village", "population": null, "source": "bing"}, "geometry": {"type": "Point", "coordinates": [-71.9797066, -12.782863]}}, {"id": "789", "type": "Feature", "properties": {"ELE_1": null, "FIXME_1": null, "NAME_1": null, "comment": null, "descriptio": null, "ele": null, "fixme": null, "name": "Pamparqui", "note": null, "osm_id": 3544155954, "place": "isolated_dwelling", "population": null, "source": "bing,geocatmin,GNS"}, "geometry": {"type": "Point", "coordinates": [-73.1029673, -13.4508209]}}, {"id": "791", "type": "Feature", "properties": {"ELE_1": null, "FIXME_1": null, "NAME_1": null, "comment": null, "descriptio": null, "ele": null, "fixme": null, "name": "San Ignacio", "note": null, "osm_id": 3544155969, "place": "hamlet", "population": null, "source": "bing,geocatmin,GNS"}, "geometry": {"type": "Point", "coordinates": [-72.8801451, -13.4208886]}}, {"id": "806", "type": "Feature", "properties": {"ELE_1": null, "FIXME_1": null, "NAME_1": null, "comment": null, "descriptio": null, "ele": null, "fixme": null, "name": "Monterrico", "note": null, "osm_id": 3544190520, "place": "hamlet", "population": null, "source": "bing,geocatmin,GNS"}, "geometry": {"type": "Point", "coordinates": [-72.6033208, -13.552528]}}, {"id": "847", "type": "Feature", "properties": {"ELE_1": null, "FIXME_1": null, "NAME_1": null, "comment": null, "descriptio": null, "ele": null, "fixme": null, "name": "Paraiso", "note": null, "osm_id": 3559743292, "place": "hamlet", "population": null, "source": "bing"}, "geometry": {"type": "Point", "coordinates": [-72.6640342, -12.8215258]}}, {"id": "848", "type": "Feature", "properties": {"ELE_1": null, "FIXME_1": null, "NAME_1": null, "comment": null, "descriptio": null, "ele": null, "fixme": null, "name": "Quebrada Honda", "note": null, "osm_id": 3559743393, "place": "hamlet", "population": null, "source": "bing"}, "geometry": {"type": "Point", "coordinates": [-72.6566366, -12.8321699]}}, {"id": "866", "type": "Feature", "properties": {"ELE_1": null, "FIXME_1": null, "NAME_1": null, "comment": null, "descriptio": null, "ele": null, "fixme": null, "name": "Curca", "note": null, "osm_id": 3564222572, "place": "village", "population": null, "source": null}, "geometry": {"type": "Point", "coordinates": [-72.0850533, -14.1425726]}}, {"id": "869", "type": "Feature", "properties": {"ELE_1": null, "FIXME_1": null, "NAME_1": null, "comment": null, "descriptio": null, "ele": null, "fixme": null, "name": "Huamancharpa", "note": null, "osm_id": 3564222585, "place": "hamlet", "population": null, "source": null}, "geometry": {"type": "Point", "coordinates": [-72.3119699, -14.4255705]}}, {"id": "870", "type": "Feature", "properties": {"ELE_1": null, "FIXME_1": null, "NAME_1": null, "comment": null, "descriptio": null, "ele": null, "fixme": null, "name": "Huayllani", "note": null, "osm_id": 3564222590, "place": "hamlet", "population": null, "source": null}, "geometry": {"type": "Point", "coordinates": [-72.2611588, -14.3752599]}}, {"id": "871", "type": "Feature", "properties": {"ELE_1": null, "FIXME_1": null, "NAME_1": null, "comment": null, "descriptio": null, "ele": null, "fixme": null, "name": "Huayllani", "note": null, "osm_id": 3564222591, "place": "hamlet", "population": null, "source": null}, "geometry": {"type": "Point", "coordinates": [-72.2996486, -14.3983136]}}, {"id": "891", "type": "Feature", "properties": {"ELE_1": null, "FIXME_1": null, "NAME_1": null, "comment": null, "descriptio": null, "ele": null, "fixme": null, "name": "Surimana", "note": null, "osm_id": 3564224560, "place": "hamlet", "population": null, "source": null}, "geometry": {"type": "Point", "coordinates": [-72.2740218, -14.4056653]}}, {"id": "908", "type": "Feature", "properties": {"ELE_1": null, "FIXME_1": null, "NAME_1": null, "comment": null, "descriptio": null, "ele": null, "fixme": null, "name": "Mayapo", "note": null, "osm_id": 3623884993, "place": "village", "population": null, "source": null}, "geometry": {"type": "Point", "coordinates": [-73.9577524, -12.3575771]}}, {"id": "909", "type": "Feature", "properties": {"ELE_1": null, "FIXME_1": null, "NAME_1": null, "comment": null, "descriptio": null, "ele": null, "fixme": null, "name": "Mayapo", "note": null, "osm_id": 3623884994, "place": "village", "population": null, "source": null}, "geometry": {"type": "Point", "coordinates": [-73.914101, -12.4066064]}}, {"id": "911", "type": "Feature", "properties": {"ELE_1": null, "FIXME_1": null, "NAME_1": null, "comment": null, "descriptio": null, "ele": null, "fixme": null, "name": "Nueva Esperanza", "note": null, "osm_id": 3623884998, "place": "village", "population": null, "source": null}, "geometry": {"type": "Point", "coordinates": [-73.8915647, -12.4214088]}}, {"id": "917", "type": "Feature", "properties": {"ELE_1": null, "FIXME_1": null, "NAME_1": null, "comment": null, "descriptio": null, "ele": null, "fixme": null, "name": "Santa Rosa", "note": null, "osm_id": 3623885017, "place": "village", "population": null, "source": null}, "geometry": {"type": "Point", "coordinates": [-73.9808204, -12.311711]}}, {"id": "918", "type": "Feature", "properties": {"ELE_1": null, "FIXME_1": null, "NAME_1": null, "comment": null, "descriptio": null, "ele": null, "fixme": null, "name": "Villa Virgen", "note": null, "osm_id": 3623885025, "place": "hamlet", "population": null, "source": null}, "geometry": {"type": "Point", "coordinates": [-73.9389403, -12.3768803]}}, {"id": "930", "type": "Feature", "properties": {"ELE_1": null, "FIXME_1": null, "NAME_1": null, "comment": null, "descriptio": null, "ele": null, "fixme": null, "name": "Las Palmas", "note": null, "osm_id": 3625527586, "place": "hamlet", "population": null, "source": null}, "geometry": {"type": "Point", "coordinates": [-73.7677958, -12.6520314]}}, {"id": "932", "type": "Feature", "properties": {"ELE_1": null, "FIXME_1": null, "NAME_1": null, "comment": null, "descriptio": null, "ele": null, "fixme": null, "name": "San Martin", "note": null, "osm_id": 3625528108, "place": "hamlet", "population": null, "source": null}, "geometry": {"type": "Point", "coordinates": [-73.8279934, -12.5669155]}}, {"id": "938", "type": "Feature", "properties": {"ELE_1": null, "FIXME_1": null, "NAME_1": null, "comment": null, "descriptio": null, "ele": null, "fixme": null, "name": "Nueva Generacion", "note": null, "osm_id": 3625545402, "place": "hamlet", "population": null, "source": null}, "geometry": {"type": "Point", "coordinates": [-73.6780488, -12.7130918]}}, {"id": "951", "type": "Feature", "properties": {"ELE_1": null, "FIXME_1": null, "NAME_1": null, "comment": null, "descriptio": null, "ele": null, "fixme": null, "name": "Quillabamba", "note": null, "osm_id": 3625666672, "place": "village", "population": null, "source": null}, "geometry": {"type": "Point", "coordinates": [-73.4860091, -13.013757]}}, {"id": "952", "type": "Feature", "properties": {"ELE_1": null, "FIXME_1": null, "NAME_1": null, "comment": null, "descriptio": null, "ele": null, "fixme": null, "name": "San Antonio", "note": null, "osm_id": 3625666681, "place": "village", "population": null, "source": null}, "geometry": {"type": "Point", "coordinates": [-73.5316305, -12.9325121]}}, {"id": "953", "type": "Feature", "properties": {"ELE_1": null, "FIXME_1": null, "NAME_1": null, "comment": null, "descriptio": null, "ele": null, "fixme": null, "name": "San Martin", "note": null, "osm_id": 3625666682, "place": "village", "population": null, "source": null}, "geometry": {"type": "Point", "coordinates": [-73.5274422, -12.9381701]}}, {"id": "958", "type": "Feature", "properties": {"ELE_1": null, "FIXME_1": null, "NAME_1": null, "comment": null, "descriptio": null, "ele": null, "fixme": null, "name": "Occobamba", "note": null, "osm_id": 3625776587, "place": "hamlet", "population": null, "source": null}, "geometry": {"type": "Point", "coordinates": [-73.2541266, -13.4101598]}}, {"id": "960", "type": "Feature", "properties": {"ELE_1": null, "FIXME_1": null, "NAME_1": null, "comment": null, "descriptio": null, "ele": null, "fixme": null, "name": "San Ignacio", "note": null, "osm_id": 3625778702, "place": "hamlet", "population": null, "source": null}, "geometry": {"type": "Point", "coordinates": [-73.2951284, -13.3811477]}}, {"id": "967", "type": "Feature", "properties": {"ELE_1": null, "FIXME_1": null, "NAME_1": null, "comment": null, "descriptio": null, "ele": null, "fixme": null, "name": "Accoyo", "note": null, "osm_id": 3639693592, "place": "hamlet", "population": null, "source": null}, "geometry": {"type": "Point", "coordinates": [-70.8140764, -13.827314]}}, {"id": "968", "type": "Feature", "properties": {"ELE_1": null, "FIXME_1": null, "NAME_1": null, "comment": null, "descriptio": null, "ele": null, "fixme": null, "name": "Accoyo", "note": null, "osm_id": 3639693593, "place": "hamlet", "population": null, "source": null}, "geometry": {"type": "Point", "coordinates": [-70.8122484, -13.8666295]}}, {"id": "998", "type": "Feature", "properties": {"ELE_1": null, "FIXME_1": null, "NAME_1": null, "comment": null, "descriptio": null, "ele": null, "fixme": null, "name": "Rumi Rumi", "note": null, "osm_id": 3639693738, "place": "hamlet", "population": null, "source": null}, "geometry": {"type": "Point", "coordinates": [-70.7445976, -13.8225976]}}, {"id": "1035", "type": "Feature", "properties": {"ELE_1": null, "FIXME_1": null, "NAME_1": null, "comment": null, "descriptio": null, "ele": null, "fixme": null, "name": "Turmana", "note": null, "osm_id": 3641278222, "place": "hamlet", "population": null, "source": null}, "geometry": {"type": "Point", "coordinates": [-71.102231, -14.6546494]}}, {"id": "1039", "type": "Feature", "properties": {"ELE_1": null, "FIXME_1": null, "NAME_1": null, "comment": null, "descriptio": null, "ele": null, "fixme": null, "name": "Turmana", "note": null, "osm_id": 3641300034, "place": "hamlet", "population": null, "source": null}, "geometry": {"type": "Point", "coordinates": [-70.9891084, -14.8476795]}}, {"id": "1050", "type": "Feature", "properties": {"ELE_1": null, "FIXME_1": null, "NAME_1": null, "comment": null, "descriptio": null, "ele": null, "fixme": null, "name": "Llallahui", "note": null, "osm_id": 3641305210, "place": "hamlet", "population": null, "source": null}, "geometry": {"type": "Point", "coordinates": [-71.0004038, -15.0020689]}}, {"id": "1052", "type": "Feature", "properties": {"ELE_1": null, "FIXME_1": null, "NAME_1": null, "comment": null, "descriptio": null, "ele": null, "fixme": null, "name": "Santa Rosa", "note": null, "osm_id": 3641305227, "place": "hamlet", "population": null, "source": null}, "geometry": {"type": "Point", "coordinates": [-70.9950899, -15.05258]}}, {"id": "1054", "type": "Feature", "properties": {"ELE_1": null, "FIXME_1": null, "NAME_1": null, "comment": null, "descriptio": null, "ele": null, "fixme": null, "name": "Totora", "note": null, "osm_id": 3710893601, "place": "village", "population": null, "source": null}, "geometry": {"type": "Point", "coordinates": [-71.9096672, -13.2479266]}}, {"id": "1064", "type": "Feature", "properties": {"ELE_1": null, "FIXME_1": null, "NAME_1": null, "comment": null, "descriptio": null, "ele": null, "fixme": null, "name": "San Lorenzo", "note": null, "osm_id": 3726888136, "place": "village", "population": null, "source": null}, "geometry": {"type": "Point", "coordinates": [-72.3877975, -12.6775547]}}, {"id": "1071", "type": "Feature", "properties": {"ELE_1": null, "FIXME_1": null, "NAME_1": null, "comment": null, "descriptio": null, "ele": null, "fixme": null, "name": "Rayampata", "note": null, "osm_id": 3732301009, "place": "village", "population": null, "source": null}, "geometry": {"type": "Point", "coordinates": [-71.9595117, -13.3129845]}}, {"id": "1086", "type": "Feature", "properties": {"ELE_1": null, "FIXME_1": null, "NAME_1": null, "comment": null, "descriptio": null, "ele": null, "fixme": null, "name": "Cuquipata", "note": null, "osm_id": 3958342924, "place": "village", "population": null, "source": "local knowledge"}, "geometry": {"type": "Point", "coordinates": [-72.1786901, -12.7549164]}}, {"id": "1091", "type": "Feature", "properties": {"ELE_1": null, "FIXME_1": null, "NAME_1": null, "comment": null, "descriptio": null, "ele": null, "fixme": null, "name": "Agua Dulce", "note": null, "osm_id": 3958443569, "place": "hamlet", "population": null, "source": "local knowledge"}, "geometry": {"type": "Point", "coordinates": [-73.0891982, -12.6406206]}}, {"id": "1101", "type": "Feature", "properties": {"ELE_1": null, "FIXME_1": null, "NAME_1": null, "comment": null, "descriptio": null, "ele": null, "fixme": null, "name": "San Francisco", "note": null, "osm_id": 3958860801, "place": "town", "population": null, "source": "MTC"}, "geometry": {"type": "Point", "coordinates": [-73.787669, -12.6245911]}}, {"id": "1121", "type": "Feature", "properties": {"ELE_1": null, "FIXME_1": null, "NAME_1": null, "comment": null, "descriptio": null, "ele": null, "fixme": null, "name": "Yuracmayo", "note": null, "osm_id": 4176860439, "place": "village", "population": null, "source": null}, "geometry": {"type": "Point", "coordinates": [-71.5367562, -13.6291818]}}, {"id": "1127", "type": "Feature", "properties": {"ELE_1": null, "FIXME_1": null, "NAME_1": null, "comment": null, "descriptio": null, "ele": null, "fixme": null, "name": "Huayllabamba", "note": null, "osm_id": 4177360418, "place": "village", "population": null, "source": null}, "geometry": {"type": "Point", "coordinates": [-71.4690299, -13.6432094]}}, {"id": "1135", "type": "Feature", "properties": {"ELE_1": null, "FIXME_1": null, "NAME_1": null, "comment": null, "descriptio": null, "ele": null, "fixme": null, "name": "Labraco", "note": null, "osm_id": 4181097114, "place": "village", "population": null, "source": null}, "geometry": {"type": "Point", "coordinates": [-71.331919, -13.971697]}}, {"id": "1157", "type": "Feature", "properties": {"ELE_1": null, "FIXME_1": null, "NAME_1": null, "comment": null, "descriptio": null, "ele": null, "fixme": null, "name": "Accobamba", "note": null, "osm_id": 4323620828, "place": "village", "population": null, "source": null}, "geometry": {"type": "Point", "coordinates": [-71.6892875, -13.1371529]}}, {"id": "1166", "type": "Feature", "properties": {"ELE_1": null, "FIXME_1": null, "NAME_1": null, "comment": null, "descriptio": null, "ele": null, "fixme": null, "name": "Labraco", "note": null, "osm_id": 4407252982, "place": "hamlet", "population": null, "source": null}, "geometry": {"type": "Point", "coordinates": [-71.3277629, -13.9689731]}}, {"id": "1169", "type": "Feature", "properties": {"ELE_1": null, "FIXME_1": null, "NAME_1": null, "comment": null, "descriptio": null, "ele": 1008.0, "fixme": null, "name": "Nueva Esperanza", "note": null, "osm_id": 4426976930, "place": "hamlet", "population": 122.0, "source": "gps;DEVIDA"}, "geometry": {"type": "Point", "coordinates": [-73.3899098, -13.0983467]}}, {"id": "1171", "type": "Feature", "properties": {"ELE_1": null, "FIXME_1": null, "NAME_1": null, "comment": null, "descriptio": null, "ele": null, "fixme": null, "name": "Santiago", "note": null, "osm_id": 4428052940, "place": "village", "population": null, "source": null}, "geometry": {"type": "Point", "coordinates": [-72.4400831, -12.616551]}}, {"id": "1194", "type": "Feature", "properties": {"ELE_1": null, "FIXME_1": null, "NAME_1": null, "comment": null, "descriptio": null, "ele": null, "fixme": null, "name": "Ccopi", "note": null, "osm_id": 4520762019, "place": "hamlet", "population": null, "source": null}, "geometry": {"type": "Point", "coordinates": [-71.5680089, -13.6089594]}}, {"id": "1196", "type": "Feature", "properties": {"ELE_1": null, "FIXME_1": null, "NAME_1": null, "comment": null, "descriptio": null, "ele": null, "fixme": null, "name": "San Lorenzo", "note": null, "osm_id": 4520762166, "place": "hamlet", "population": null, "source": null}, "geometry": {"type": "Point", "coordinates": [-70.5350342, -13.2044401]}}, {"id": "1197", "type": "Feature", "properties": {"ELE_1": null, "FIXME_1": null, "NAME_1": null, "comment": null, "descriptio": null, "ele": null, "fixme": null, "name": "Limonchayoc", "note": null, "osm_id": 4520774818, "place": "hamlet", "population": null, "source": null}, "geometry": {"type": "Point", "coordinates": [-70.6188049, -13.1915112]}}, {"id": "1206", "type": "Feature", "properties": {"ELE_1": null, "FIXME_1": null, "NAME_1": null, "comment": null, "descriptio": null, "ele": null, "fixme": null, "name": "San Francisco", "note": null, "osm_id": 4570553217, "place": "village", "population": null, "source": null}, "geometry": {"type": "Point", "coordinates": [-72.7469673, -13.4635294]}}, {"id": "1220", "type": "Feature", "properties": {"ELE_1": null, "FIXME_1": null, "NAME_1": null, "comment": null, "descriptio": null, "ele": null, "fixme": null, "name": "Mollebamba", "note": null, "osm_id": 4870045020, "place": "village", "population": null, "source": null}, "geometry": {"type": "Point", "coordinates": [-71.9598634, -13.7079656]}}, {"id": "1230", "type": "Feature", "properties": {"ELE_1": null, "FIXME_1": null, "NAME_1": null, "comment": null, "descriptio": null, "ele": null, "fixme": null, "name": "Pampaconas", "note": null, "osm_id": 4946319189, "place": "village", "population": null, "source": "bing"}, "geometry": {"type": "Point", "coordinates": [-73.0613317, -13.091402]}}, {"id": "1231", "type": "Feature", "properties": {"ELE_1": null, "FIXME_1": null, "NAME_1": null, "comment": null, "descriptio": null, "ele": null, "fixme": null, "name": "Accobamba", "note": null, "osm_id": 4946933861, "place": "hamlet", "population": null, "source": "bing"}, "geometry": {"type": "Point", "coordinates": [-73.2003191, -13.2978369]}}, {"id": "1245", "type": "Feature", "properties": {"ELE_1": null, "FIXME_1": "name", "NAME_1": null, "comment": null, "descriptio": null, "ele": null, "fixme": null, "name": "Hualla", "note": null, "osm_id": 4955686862, "place": "village", "population": null, "source": "bing"}, "geometry": {"type": "Point", "coordinates": [-71.9631486, -12.8384426]}}, {"id": "1248", "type": "Feature", "properties": {"ELE_1": null, "FIXME_1": null, "NAME_1": null, "comment": null, "descriptio": null, "ele": null, "fixme": null, "name": "San Antonio", "note": null, "osm_id": 4955763165, "place": "village", "population": null, "source": "bing"}, "geometry": {"type": "Point", "coordinates": [-72.0395048, -12.7040915]}}, {"id": "1263", "type": "Feature", "properties": {"ELE_1": null, "FIXME_1": null, "NAME_1": null, "comment": null, "descriptio": null, "ele": null, "fixme": null, "name": "Talanca", "note": null, "osm_id": 5064615934, "place": "hamlet", "population": null, "source": null}, "geometry": {"type": "Point", "coordinates": [-73.4774452, -13.0103668]}}, {"id": "1268", "type": "Feature", "properties": {"ELE_1": null, "FIXME_1": null, "NAME_1": null, "comment": null, "descriptio": null, "ele": null, "fixme": null, "name": "Pampaconas", "note": null, "osm_id": 5064673906, "place": "hamlet", "population": null, "source": null}, "geometry": {"type": "Point", "coordinates": [-73.3628482, -13.1091813]}}, {"id": "1274", "type": "Feature", "properties": {"ELE_1": null, "FIXME_1": null, "NAME_1": null, "comment": null, "descriptio": null, "ele": 978.0, "fixme": null, "name": "Talanca", "note": null, "osm_id": 5064778779, "place": "hamlet", "population": 150.0, "source": "gps;DEVIDA"}, "geometry": {"type": "Point", "coordinates": [-73.4713124, -13.0015968]}}, {"id": "1277", "type": "Feature", "properties": {"ELE_1": null, "FIXME_1": null, "NAME_1": null, "comment": null, "descriptio": null, "ele": 779.0, "fixme": null, "name": "San Juan", "note": null, "osm_id": 5064778782, "place": "hamlet", "population": 100.0, "source": "gps;DEVIDA"}, "geometry": {"type": "Point", "coordinates": [-73.5130534, -12.994297]}}, {"id": "1288", "type": "Feature", "properties": {"ELE_1": null, "FIXME_1": null, "NAME_1": null, "comment": null, "descriptio": null, "ele": null, "fixme": null, "name": "Paltaybamba", "note": null, "osm_id": 5104289134, "place": "hamlet", "population": null, "source": null}, "geometry": {"type": "Point", "coordinates": [-73.2213973, -13.3114942]}}, {"id": "1293", "type": "Feature", "properties": {"ELE_1": null, "FIXME_1": null, "NAME_1": null, "comment": null, "descriptio": null, "ele": 918.0, "fixme": null, "name": "San Luis", "note": null, "osm_id": 5140314411, "place": "hamlet", "population": 60.0, "source": "gps;DEVIDA"}, "geometry": {"type": "Point", "coordinates": [-73.7236834, -12.5936274]}}, {"id": "1294", "type": "Feature", "properties": {"ELE_1": null, "FIXME_1": null, "NAME_1": null, "comment": null, "descriptio": null, "ele": 1191.0, "fixme": null, "name": "Tupac Amaru", "note": null, "osm_id": 5140344163, "place": "hamlet", "population": 15.0, "source": "gps;DEVIDA"}, "geometry": {"type": "Point", "coordinates": [-73.4630786, -13.0006361]}}, {"id": "1297", "type": "Feature", "properties": {"ELE_1": null, "FIXME_1": null, "NAME_1": null, "comment": null, "descriptio": null, "ele": 1010.0, "fixme": null, "name": "Nueva Esperanza", "note": null, "osm_id": 5140377997, "place": "hamlet", "population": 200.0, "source": "gps;DEVIDA"}, "geometry": {"type": "Point", "coordinates": [-73.6433287, -12.6963032]}}, {"id": "1298", "type": "Feature", "properties": {"ELE_1": null, "FIXME_1": null, "NAME_1": null, "comment": null, "descriptio": null, "ele": 743.0, "fixme": null, "name": "Manitinkiari", "note": null, "osm_id": 5140391456, "place": "hamlet", "population": 120.0, "source": "gps;DEVIDA"}, "geometry": {"type": "Point", "coordinates": [-73.5709369, -12.8577746]}}, {"id": "1304", "type": "Feature", "properties": {"ELE_1": null, "FIXME_1": null, "NAME_1": null, "comment": null, "descriptio": null, "ele": null, "fixme": null, "name": "Marcapata", "note": null, "osm_id": 5157494266, "place": "town", "population": null, "source": "MTC"}, "geometry": {"type": "Point", "coordinates": [-70.9747666, -13.5917395]}}, {"id": "1318", "type": "Feature", "properties": {"ELE_1": null, "FIXME_1": null, "NAME_1": null, "comment": null, "descriptio": null, "ele": null, "fixme": null, "name": "Phinaya", "note": null, "osm_id": 5177364780, "place": "town", "population": null, "source": null}, "geometry": {"type": "Point", "coordinates": [-71.6212033, -14.6537558]}}, {"id": "1326", "type": "Feature", "properties": {"ELE_1": null, "FIXME_1": null, "NAME_1": null, "comment": null, "descriptio": null, "ele": 3412.0, "fixme": null, "name": "Santiago", "note": null, "osm_id": 5323162507, "place": "suburb", "population": null, "source": null}, "geometry": {"type": "Point", "coordinates": [-71.983246, -13.5253753]}}, {"id": "1341", "type": "Feature", "properties": {"ELE_1": null, "FIXME_1": null, "NAME_1": null, "comment": null, "descriptio": null, "ele": null, "fixme": null, "name": "Rayampata", "note": null, "osm_id": 5327126601, "place": "hamlet", "population": null, "source": null}, "geometry": {"type": "Point", "coordinates": [-73.2734219, -13.3178607]}}, {"id": "1342", "type": "Feature", "properties": {"ELE_1": null, "FIXME_1": null, "NAME_1": null, "comment": null, "descriptio": null, "ele": null, "fixme": null, "name": "Limonpata", "note": null, "osm_id": 5327130833, "place": "hamlet", "population": null, "source": null}, "geometry": {"type": "Point", "coordinates": [-73.2980031, -13.3481614]}}, {"id": "1346", "type": "Feature", "properties": {"ELE_1": null, "FIXME_1": null, "NAME_1": null, "comment": null, "descriptio": null, "ele": null, "fixme": null, "name": "Sayllapata", "note": null, "osm_id": 5446799077, "place": "village", "population": null, "source": null}, "geometry": {"type": "Point", "coordinates": [-71.6539339, -13.4285336]}}, {"id": "1348", "type": "Feature", "properties": {"ELE_1": null, "FIXME_1": null, "NAME_1": null, "comment": null, "descriptio": null, "ele": null, "fixme": null, "name": "Huaynapata", "note": null, "osm_id": 5446799086, "place": "village", "population": null, "source": null}, "geometry": {"type": "Point", "coordinates": [-71.6119733, -13.3269214]}}, {"id": "1352", "type": "Feature", "properties": {"ELE_1": null, "FIXME_1": null, "NAME_1": null, "comment": null, "descriptio": null, "ele": null, "fixme": null, "name": "Yanacancha", "note": null, "osm_id": 5474431735, "place": "village", "population": null, "source": null}, "geometry": {"type": "Point", "coordinates": [-71.2875418, -13.5760185]}}, {"id": "1354", "type": "Feature", "properties": {"ELE_1": null, "FIXME_1": null, "NAME_1": null, "comment": null, "descriptio": null, "ele": 720.0, "fixme": null, "name": "Paraiso", "note": null, "osm_id": 5499293987, "place": "hamlet", "population": 300.0, "source": "gps;local knowledge"}, "geometry": {"type": "Point", "coordinates": [-73.813507, -12.4882495]}}, {"id": "1371", "type": "Feature", "properties": {"ELE_1": null, "FIXME_1": null, "NAME_1": null, "comment": null, "descriptio": null, "ele": null, "fixme": null, "name": "Vista Allegre", "note": null, "osm_id": 5642189176, "place": "hamlet", "population": null, "source": null}, "geometry": {"type": "Point", "coordinates": [-73.1601611, -13.0286157]}}, {"id": "1373", "type": "Feature", "properties": {"ELE_1": null, "FIXME_1": null, "NAME_1": null, "comment": null, "descriptio": null, "ele": null, "fixme": null, "name": "Totora", "note": null, "osm_id": 5642752226, "place": "hamlet", "population": null, "source": null}, "geometry": {"type": "Point", "coordinates": [-73.1025016, -13.1761891]}}, {"id": "1379", "type": "Feature", "properties": {"ELE_1": null, "FIXME_1": null, "NAME_1": null, "comment": null, "descriptio": null, "ele": null, "fixme": null, "name": "Quillabamba", "note": null, "osm_id": 5843693269, "place": "town", "population": null, "source": null}, "geometry": {"type": "Point", "coordinates": [-72.6924428, -12.8663479]}}, {"id": "1383", "type": "Feature", "properties": {"ELE_1": null, "FIXME_1": null, "NAME_1": null, "comment": null, "descriptio": null, "ele": null, "fixme": null, "name": "Huayopata", "note": null, "osm_id": 5917169837, "place": "village", "population": null, "source": null}, "geometry": {"type": "Point", "coordinates": [-72.5930584, -13.0037954]}}, {"id": "1392", "type": "Feature", "properties": {"ELE_1": null, "FIXME_1": null, "NAME_1": null, "comment": null, "descriptio": null, "ele": null, "fixme": null, "name": "Ccopi", "note": null, "osm_id": 6008697889, "place": "town", "population": null, "source": null}, "geometry": {"type": "Point", "coordinates": [-71.5845231, -13.5926266]}}, {"id": "1429", "type": "Feature", "properties": {"ELE_1": null, "FIXME_1": null, "NAME_1": null, "comment": null, "descriptio": null, "ele": null, "fixme": null, "name": "Tucsa", "note": null, "osm_id": 6210163507, "place": "hamlet", "population": null, "source": null}, "geometry": {"type": "Point", "coordinates": [-71.1694133, -14.0943212]}}, {"id": "1436", "type": "Feature", "properties": {"ELE_1": null, "FIXME_1": null, "NAME_1": null, "comment": null, "descriptio": null, "ele": null, "fixme": null, "name": "San Isidro", "note": null, "osm_id": 6216504867, "place": "hamlet", "population": null, "source": null}, "geometry": {"type": "Point", "coordinates": [-72.1034937, -13.2780757]}}, {"id": "1440", "type": "Feature", "properties": {"ELE_1": null, "FIXME_1": null, "NAME_1": null, "comment": null, "descriptio": null, "ele": null, "fixme": null, "name": "Rosaspata", "note": null, "osm_id": 6223897460, "place": "village", "population": null, "source": null}, "geometry": {"type": "Point", "coordinates": [-72.0557263, -13.0526698]}}, {"id": "1444", "type": "Feature", "properties": {"ELE_1": null, "FIXME_1": null, "NAME_1": null, "comment": null, "descriptio": null, "ele": null, "fixme": null, "name": "Villa Carmen", "note": null, "osm_id": 6227981881, "place": "hamlet", "population": null, "source": null}, "geometry": {"type": "Point", "coordinates": [-71.4028341, -12.8941478]}}, {"id": "1446", "type": "Feature", "properties": {"ELE_1": null, "FIXME_1": null, "NAME_1": null, "comment": null, "descriptio": null, "ele": null, "fixme": null, "name": "Tupac Amaru", "note": null, "osm_id": 6228099140, "place": "hamlet", "population": null, "source": null}, "geometry": {"type": "Point", "coordinates": [-71.3886733, -12.9506254]}}, {"id": "1461", "type": "Feature", "properties": {"ELE_1": null, "FIXME_1": null, "NAME_1": null, "comment": null, "descriptio": null, "ele": null, "fixme": null, "name": "Huamancharpa", "note": null, "osm_id": 6318837676, "place": "village", "population": null, "source": null}, "geometry": {"type": "Point", "coordinates": [-71.9978311, -13.5734366]}}, {"id": "1462", "type": "Feature", "properties": {"ELE_1": null, "FIXME_1": null, "NAME_1": null, "comment": null, "descriptio": null, "ele": null, "fixme": null, "name": "San Lorenzo", "note": null, "osm_id": 6323042587, "place": "village", "population": null, "source": null}, "geometry": {"type": "Point", "coordinates": [-71.8922406, -13.8560597]}}, {"id": "1465", "type": "Feature", "properties": {"ELE_1": null, "FIXME_1": null, "NAME_1": null, "comment": null, "descriptio": null, "ele": null, "fixme": null, "name": "Vista Alegre", "note": null, "osm_id": 6327932000, "place": "hamlet", "population": null, "source": null}, "geometry": {"type": "Point", "coordinates": [-72.9535654, -11.2960438]}}, {"id": "1507", "type": "Feature", "properties": {"ELE_1": null, "FIXME_1": null, "NAME_1": null, "comment": null, "descriptio": null, "ele": null, "fixme": null, "name": "Marcapata", "note": null, "osm_id": 6379665740, "place": "village", "population": null, "source": null}, "geometry": {"type": "Point", "coordinates": [-71.4824899, -13.273884]}}, {"id": "1520", "type": "Feature", "properties": {"ELE_1": null, "FIXME_1": null, "NAME_1": null, "comment": null, "descriptio": null, "ele": null, "fixme": null, "name": "Nueva Generacion", "note": null, "osm_id": 6396626703, "place": "hamlet", "population": null, "source": null}, "geometry": {"type": "Point", "coordinates": [-73.4034365, -12.9141684]}}, {"id": "1522", "type": "Feature", "properties": {"ELE_1": null, "FIXME_1": null, "NAME_1": null, "comment": null, "descriptio": null, "ele": null, "fixme": null, "name": "Manitinkiari", "note": null, "osm_id": 6396626705, "place": "hamlet", "population": null, "source": null}, "geometry": {"type": "Point", "coordinates": [-73.3624533, -12.8443379]}}, {"id": "1542", "type": "Feature", "properties": {"ELE_1": null, "FIXME_1": null, "NAME_1": null, "comment": null, "descriptio": null, "ele": null, "fixme": null, "name": "Yavero Chico", "note": null, "osm_id": 6443501189, "place": "hamlet", "population": null, "source": null}, "geometry": {"type": "Point", "coordinates": [-72.5205364, -12.5419412]}}, {"id": "1552", "type": "Feature", "properties": {"ELE_1": null, "FIXME_1": null, "NAME_1": null, "comment": null, "descriptio": null, "ele": null, "fixme": null, "name": "Limonpata", "note": null, "osm_id": 6464476127, "place": "hamlet", "population": null, "source": null}, "geometry": {"type": "Point", "coordinates": [-72.6724515, -13.0310638]}}, {"id": "1553", "type": "Feature", "properties": {"ELE_1": null, "FIXME_1": null, "NAME_1": null, "comment": null, "descriptio": null, "ele": null, "fixme": null, "name": "Ccochapampa", "note": null, "osm_id": 6464476799, "place": "hamlet", "population": null, "source": null}, "geometry": {"type": "Point", "coordinates": [-72.6408326, -13.0358003]}}, {"id": "1555", "type": "Feature", "properties": {"ELE_1": null, "FIXME_1": null, "NAME_1": null, "comment": null, "descriptio": null, "ele": null, "fixme": null, "name": "Villa Carmen", "note": null, "osm_id": 6467515289, "place": "hamlet", "population": null, "source": null}, "geometry": {"type": "Point", "coordinates": [-73.1883323, -12.8568847]}}, {"id": "1557", "type": "Feature", "properties": {"ELE_1": null, "FIXME_1": null, "NAME_1": null, "comment": null, "descriptio": null, "ele": null, "fixme": null, "name": "Quebrada Honda", "note": null, "osm_id": 6467607008, "place": "hamlet", "population": null, "source": null}, "geometry": {"type": "Point", "coordinates": [-73.0796278, -12.7064821]}}, {"id": "1566", "type": "Feature", "properties": {"ELE_1": null, "FIXME_1": null, "NAME_1": null, "comment": null, "descriptio": null, "ele": null, "fixme": null, "name": "Cedros", "note": null, "osm_id": 6472009596, "place": "hamlet", "population": null, "source": null}, "geometry": {"type": "Point", "coordinates": [-71.7584721, -13.0494461]}}, {"id": "1574", "type": "Feature", "properties": {"ELE_1": null, "FIXME_1": null, "NAME_1": null, "comment": null, "descriptio": null, "ele": null, "fixme": null, "name": "San Isidro", "note": null, "osm_id": 6472019998, "place": "village", "population": null, "source": null}, "geometry": {"type": "Point", "coordinates": [-71.5997346, -13.3125285]}}, {"id": "1610", "type": "Feature", "properties": {"ELE_1": null, "FIXME_1": null, "NAME_1": null, "comment": null, "descriptio": null, "ele": null, "fixme": null, "name": "Huancane", "note": null, "osm_id": 6833860030, "place": "hamlet", "population": null, "source": null}, "geometry": {"type": "Point", "coordinates": [-71.6832134, -14.3996211]}}, {"id": "1621", "type": "Feature", "properties": {"ELE_1": null, "FIXME_1": null, "NAME_1": null, "comment": null, "descriptio": null, "ele": null, "fixme": null, "name": "Pampallacta", "note": null, "osm_id": 6949601927, "place": "hamlet", "population": null, "source": null}, "geometry": {"type": "Point", "coordinates": [-71.9028059, -13.2452456]}}, {"id": "1644", "type": "Feature", "properties": {"ELE_1": null, "FIXME_1": null, "NAME_1": null, "comment": null, "descriptio": null, "ele": null, "fixme": null, "name": "Huambutio", "note": null, "osm_id": 6985712234, "place": "hamlet", "population": null, "source": null}, "geometry": {"type": "Point", "coordinates": [-71.7144692, -13.5835686]}}, {"id": "1645", "type": "Feature", "properties": {"ELE_1": null, "FIXME_1": null, "NAME_1": null, "comment": null, "descriptio": null, "ele": null, "fixme": null, "name": "Vilcabamba", "note": null, "osm_id": 6985713007, "place": "hamlet", "population": null, "source": null}, "geometry": {"type": "Point", "coordinates": [-71.7161751, -13.5569269]}}, {"id": "1666", "type": "Feature", "properties": {"ELE_1": null, "FIXME_1": null, "NAME_1": null, "comment": null, "descriptio": null, "ele": null, "fixme": null, "name": "Sayllapata", "note": null, "osm_id": 7103671961, "place": "hamlet", "population": null, "source": null}, "geometry": {"type": "Point", "coordinates": [-72.5391546, -13.4543268]}}, {"id": "1667", "type": "Feature", "properties": {"ELE_1": null, "FIXME_1": null, "NAME_1": null, "comment": null, "descriptio": null, "ele": null, "fixme": null, "name": "Cruzpata", "note": null, "osm_id": 7103671992, "place": "hamlet", "population": null, "source": null}, "geometry": {"type": "Point", "coordinates": [-72.5314915, -13.4714281]}}, {"id": "1676", "type": "Feature", "properties": {"ELE_1": null, "FIXME_1": null, "NAME_1": null, "comment": null, "descriptio": null, "ele": null, "fixme": null, "name": "Munaypata", "note": null, "osm_id": 7233039538, "place": "hamlet", "population": null, "source": null}, "geometry": {"type": "Point", "coordinates": [-72.3501459, -12.4462197]}}, {"id": "1677", "type": "Feature", "properties": {"ELE_1": null, "FIXME_1": null, "NAME_1": null, "comment": null, "descriptio": null, "ele": null, "fixme": null, "name": "Lechemayo", "note": null, "osm_id": 7233620417, "place": "village", "population": null, "source": null}, "geometry": {"type": "Point", "coordinates": [-72.103196, -12.6834993]}}, {"id": "1688", "type": "Feature", "properties": {"ELE_1": null, "FIXME_1": null, "NAME_1": null, "comment": null, "descriptio": null, "ele": 3671.0, "fixme": null, "name": "Pamparqui", "note": null, "osm_id": 7404465111, "place": "village", "population": null, "source": null}, "geometry": {"type": "Point", "coordinates": [-71.4399302, -14.1175508]}}, {"id": "1696", "type": "Feature", "properties": {"ELE_1": null, "FIXME_1": null, "NAME_1": null, "comment": null, "descriptio": null, "ele": 4053.0, "fixme": null, "name": "Rosaspata", "note": null, "osm_id": 7404852323, "place": "hamlet", "population": null, "source": null}, "geometry": {"type": "Point", "coordinates": [-71.4218645, -14.221893]}}, {"id": "1714", "type": "Feature", "properties": {"ELE_1": null, "FIXME_1": null, "NAME_1": null, "comment": null, "descriptio": null, "ele": null, "fixme": null, "name": "Urco", "note": null, "osm_id": 7428703691, "place": "village", "population": null, "source": null}, "geometry": {"type": "Point", "coordinates": [-71.9819608, -13.3244346]}}]}