{"type": "FeatureCollection", "features": [{"id": "0", "type": "Feature", "properties": {"ELE_1": null, "FIXME_1": null, "NAME_1": null, "comment": null, "descriptio": null, "ele": 3400.0, "fixme": null, "name": "Cusco", "note": null, "osm_id": 59115290, "place": "city", "population": 420137.0, "source": null}, "geometry": {"type": "Point", "coordinates": [-71.9785356, -13.5170887]}}, {"id": "4", "type": "Feature", "properties": {"ELE_1": null, "FIXME_1": null, "NAME_1": null, "comment": null, "descriptio": null, "ele": 3480.0, "fixme": null, "name": "Combapata", "note": null, "osm_id": 262945615, "place": "town", "population": null, "source": null}, "geometry": {"type": "Point", "coordinates": [-71.4296335, -14.1015949]}}, {"id": "8", "type": "Feature", "properties": {"ELE_1": null, "FIXME_1": null, "NAME_1": null, "comment": null, "descriptio": null, "ele": 2606.0, "fixme": null, "name": "Limatambo", "note": null, "osm_id": 288517478, "place": "village", "population": null, "source": null}, "geometry": {"type": "Point", "coordinates": [-72.4445624, -13.4799292]}}, {"id": "9", "type": "Feature", "properties": {"ELE_1": null, "FIXME_1": null, "NAME_1": null, "comment": null, "descriptio": null, "ele": null, "fixme": null, "name": "Paucartambo", "note": null, "osm_id": 292250901, "place": "town", "population": null, "source": "bing; MTC"}, "geometry": {"type": "Point", "coordinates": [-71.5959691, -13.3176052]}}, {"id": "15", "type": "Feature", "properties": {"ELE_1": null, "FIXME_1": null, "NAME_1": null, "comment": null, "descriptio": null, "ele": null, "fixme": null, "name": "Vista Allegre", "note": null, "osm_id": 415166319, "place": "hamlet", "population": null, "source": null}, "geometry": {"type": "Point", "coordinates": [-73.1503615, -13.0337609]}}, {"id": "25", "type": "Feature", "properties": {"ELE_1": null, "FIXME_1": null, "NAME_1": null, "comment": null, "descriptio": null, "ele": null, "fixme": null, "name": "Huayopata", "note": null, "osm_id": 415166332, "place": "village", "population": null, "source": null}, "geometry": {"type": "Point", "coordinates": [-72.5350317, -12.9967612]}}, {"id": "26", "type": "Feature", "properties": {"ELE_1": null, "FIXME_1": null, "NAME_1": null, "comment": null, "descriptio": null, "ele": null, "fixme": null, "name": "Amaybamba", "note": null, "osm_id": 415166333, "place": "village", "population": null, "source": null}, "geometry": {"type": "Point", "coordinates": [-72.516028, -13.0031619]}}, {"id": "30", "type": "Feature", "properties": {"ELE_1": null, "FIXME_1": null, "NAME_1": null, "comment": null, "descriptio": null, "ele": 3002.0, "fixme": null, "name": "San Luis", "note": null, "osm_id": 415166337, "place": "village", "population": null, "source": null}, "geometry": {"type": "Point", "coordinates": [-72.3903496, -13.0786543]}}, {"id": "33", "type": "Feature", "properties": {"ELE_1": null, "FIXME_1": null, "NAME_1": null, "comment": null, "descriptio": null, "ele": null, "fixme": null, "name": "Chaullay", "note": null, "osm_id": 420786661, "place": "village", "population": null, "source": null}, "geometry": {"type": "Point", "coordinates": [-72.6463198, -13.0061801]}}, {"id": "35", "type": "Feature", "properties": {"ELE_1": null, "FIXME_1": null, "NAME_1": null, "comment": null, "descriptio": null, "ele": null, "fixme": null, "name": "Paltaybamba", "note": null, "osm_id": 420846194, "place": "village", "population": null, "source": null}, "geometry": {"type": "Point", "coordinates": [-72.7265555, -13.0217307]}}, {"id": "39", "type": "Feature", "properties": {"ELE_1": null, "FIXME_1": null, "NAME_1": null, "comment": null, "descriptio": null, "ele": null, "fixme": null, "name": "Pucyura", "note": null, "osm_id": 420846198, "place": "hamlet", "population": null, "source": null}, "geometry": {"type": "Point", "coordinates": [-72.9340734, -13.0928986]}}, {"id": "46", "type": "Feature", "properties": {"ELE_1": null, "FIXME_1": null, "NAME_1": null, "comment": null, "descriptio": null, "ele": 2932.0, "fixme": null, "name": "Calca", "note": null, "osm_id": 436613486, "place": "town", "population": null, "source": null}, "geometry": {"type": "Point", "coordinates": [-71.9560084, -13.3216818]}}, {"id": "49", "type": "Feature", "properties": {"ELE_1": null, "FIXME_1": null, "NAME_1": null, "comment": null, "descriptio": null, "ele": null, "fixme": null, "name": "Urubamba", "note": null, "osm_id": 441008049, "place": "town", "population": null, "source": null}, "geometry": {"type": "Point", "coordinates": [-72.1159538, -13.3059361]}}, {"id": "64", "type": "Feature", "properties": {"ELE_1": null, "FIXME_1": null, "NAME_1": null, "comment": null, "descriptio": null, "ele": null, "fixme": null, "name": "Chaullay", "note": null, "osm_id": 497118624, "place": "village", "population": null, "source": null}, "geometry": {"type": "Point", "coordinates": [-72.665031, -13.3248581]}}, {"id": "68", "type": "Feature", "properties": {"ELE_1": null, "FIXME_1": null, "NAME_1": null, "comment": null, "descriptio": null, "ele": null, "fixme": null, "name": "Totora", "note": null, "osm_id": 633602381, "place": "village", "population": null, "source": null}, "geometry": {"type": "Point", "coordinates": [-72.7184747, -13.3319241]}}, {"id": "70", "type": "Feature", "properties": {"ELE_1": null, "FIXME_1": null, "NAME_1": null, "comment": null, "descriptio": null, "ele": null, "fixme": null, "name": "Occobamba", "note": null, "osm_id": 874430105, "place": "hamlet", "population": null, "source": null}, "geometry": {"type": "Point", "coordinates": [-71.1069347, -14.4240383]}}, {"id": "93", "type": "Feature", "properties": {"ELE_1": null, "FIXME_1": null, "NAME_1": null, "comment": null, "descriptio": null, "ele": null, "fixme": null, "name": "Huayllabamba", "note": null, "osm_id": 1112551948, "place": "hamlet", "population": null, "source": null}, "geometry": {"type": "Point", "coordinates": [-72.447039, -13.264304]}}, {"id": "94", "type": "Feature", "properties": {"ELE_1": null, "FIXME_1": null, "NAME_1": null, "comment": null, "descriptio": null, "ele": null, "fixme": null, "name": "Cusco", "note": null, "osm_id": 1230775156, "place": "state", "population": 1171403.0, "source": "GNS"}, "geometry": {"type": "Point", "coordinates": [-72.5, -12.5]}}, {"id": "96", "type": "Feature", "properties": {"ELE_1": null, "FIXME_1": null, "NAME_1": null, "comment": null, "descriptio": null, "ele": null, "fixme": null, "name": "Paucartambo", "note": null, "osm_id": 1237030048, "place": "region", "population": null, "source": "GNS"}, "geometry": {"type": "Point", "coordinates": [-71.5539961, -13.2000945]}}, {"id": "97", "type": "Feature", "properties": {"ELE_1": null, "FIXME_1": null, "NAME_1": null, "comment": null, "descriptio": null, "ele": null, "fixme": null, "name": "Calca", "note": null, "osm_id": 1237030055, "place": "region", "population": null, "source": "GNS"}, "geometry": {"type": "Point", "coordinates": [-72.058177, -12.9397785]}}, {"id": "100", "type": "Feature", "properties": {"ELE_1": null, "FIXME_1": null, "NAME_1": null, "comment": null, "descriptio": null, "ele": null, "fixme": null, "name": "Cusco", "note": null, "osm_id": 1237030089, "place": "region", "population": null, "source": "GNS"}, "geometry": {"type": "Point", "coordinates": [-71.9906371, -13.5542811]}}, {"id": "102", "type": "Feature", "properties": {"ELE_1": null, "FIXME_1": null, "NAME_1": null, "comment": null, "descriptio": null, "ele": null, "fixme": null, "name": "Acomayo", "note": null, "osm_id": 1237030094, "place": "region", "population": null, "source": "GNS"}, "geometry": {"type": "Point", "coordinates": [-71.666667, -13.916667]}}, {"id": "104", "type": "Feature", "properties": {"ELE_1": null, "FIXME_1": null, "NAME_1": null, "comment": null, "descriptio": null, "ele": null, "fixme": null, "name": "Anta", "note": null, "osm_id": 1237030146, "place": "region", "population": null, "source": "GNS"}, "geometry": {"type": "Point", "coordinates": [-72.333333, -13.5]}}, {"id": "105", "type": "Feature", "properties": {"ELE_1": null, "FIXME_1": null, "NAME_1": null, "comment": null, "descriptio": null, "ele": null, "fixme": null, "name": "Urubamba", "note": null, "osm_id": 1237030159, "place": "region", "population": null, "source": "GNS"}, "geometry": {"type": "Point", "coordinates": [-72.2646684, -13.2292798]}}, {"id": "106", "type": "Feature", "properties": {"ELE_1": null, "FIXME_1": null, "NAME_1": null, "comment": null, "descriptio": null, "ele": null, "fixme": null, "name": "Paruro", "note": null, "osm_id": 1237030164, "place": "region", "population": null, "source": "GNS"}, "geometry": {"type": "Point", "coordinates": [-71.916667, -13.916667]}}, {"id": "108", "type": "Feature", "properties": {"ELE_1": null, "FIXME_1": null, "NAME_1": null, "comment": null, "descriptio": null, "ele": null, "fixme": null, "name": "San Pablo", "note": null, "osm_id": 1342584387, "place": "village", "population": null, "source": null}, "geometry": {"type": "Point", "coordinates": [-72.6191841, -13.0245807]}}, {"id": "111", "type": "Feature", "properties": {"ELE_1": null, "FIXME_1": null, "NAME_1": null, "comment": null, "descriptio": null, "ele": null, "fixme": null, "name": "Naranjal", "note": null, "osm_id": 1342584529, "place": "hamlet", "population": null, "source": null}, "geometry": {"type": "Point", "coordinates": [-72.6497919, -13.0089857]}}, {"id": "112", "type": "Feature", "properties": {"ELE_1": null, "FIXME_1": null, "NAME_1": null, "comment": null, "descriptio": null, "ele": null, "fixme": null, "name": "Colpani", "note": null, "osm_id": 1342584549, "place": "hamlet", "population": null, "source": null}, "geometry": {"type": "Point", "coordinates": [-72.5857885, -13.1354385]}}, {"id": "113", "type": "Feature", "properties": {"ELE_1": null, "FIXME_1": null, "NAME_1": null, "comment": null, "descriptio": null, "ele": null, "fixme": null, "name": "Cuquipata", "note": null, "osm_id": 1347759176, "place": "village", "population": null, "source": null}, "geometry": {"type": "Point", "coordinates": [-72.6848817, -13.0256929]}}, {"id": "118", "type": "Feature", "properties": {"ELE_1": null, "FIXME_1": null, "NAME_1": null, "comment": null, "descriptio": null, "ele": null, "fixme": null, "name": "Vilcabamba", "note": null, "osm_id": 1356891560, "place": "village", "population": null, "source": "local knowledge"}, "geometry": {"type": "Point", "coordinates": [-72.9767532, -13.1203657]}}, {"id": "124", "type": "Feature", "properties": {"ELE_1": null, "FIXME_1": null, "NAME_1": null, "comment": null, "descriptio": null, "ele": null, "fixme": null, "name": "Ttio", "note": null, "osm_id": 1468345493, "place": "village", "population": null, "source": null}, "geometry": {"type": "Point", "coordinates": [-71.5733701, -13.7714774]}}, {"id": "127", "type": "Feature", "properties": {"ELE_1": null, "FIXME_1": null, "NAME_1": null, "comment": null, "descriptio": null, "ele": null, "fixme": null, "name": "San Pablo", "note": null, "osm_id": 1475916689, "place": "village", "population": null, "source": null}, "geometry": {"type": "Point", "coordinates": [-71.31498, -14.201866]}}, {"id": "128", "type": "Feature", "properties": {"ELE_1": null, "FIXME_1": null, "NAME_1": null, "comment": null, "descriptio": null, "ele": null, "fixme": null, "name": "Occobamba", "note": null, "osm_id": 1475916692, "place": "village", "population": null, "source": null}, "geometry": {"type": "Point", "coordinates": [-71.4992325, -13.9568052]}}, {"id": "137", "type": "Feature", "properties": {"ELE_1": null, "FIXME_1": null, "NAME_1": null, "comment": null, "descriptio": null, "ele": null, "fixme": null, "name": "Llallahui", "note": null, "osm_id": 1477959488, "place": "village", "population": null, "source": null}, "geometry": {"type": "Point", "coordinates": [-71.1175506, -14.4110271]}}, {"id": "156", "type": "Feature", "properties": {"ELE_1": null, "FIXME_1": null, "NAME_1": null, "comment": null, "descriptio": null, "ele": null, "fixme": null, "name": "Vista Alegre", "note": null, "osm_id": 1791478800, "place": "hamlet", "population": null, "source": null}, "geometry": {"type": "Point", "coordinates": [-72.1347557, -14.5725101]}}, {"id": "178", "type": "Feature", "properties": {"ELE_1": null, "FIXME_1": null, "NAME_1": null, "comment": null, "descriptio": null, "ele": null, "fixme": null, "name": "Cota\u00f1a", "note": null, "osm_id": 2182269544, "place": "hamlet", "population": null, "source": null}, "geometry": {"type": "Point", "coordinates": [-72.0147418, -14.0150085]}}, {"id": "180", "type": "Feature", "properties": {"ELE_1": null, "FIXME_1": null, "NAME_1": null, "comment": null, "descriptio": null, "ele": null, "fixme": null, "name": "San Isidro", "note": null, "osm_id": 2186590421, "place": "hamlet", "population": null, "source": null}, "geometry": {"type": "Point", "coordinates": [-72.2682643, -13.2582937]}}, {"id": "183", "type": "Feature", "properties": {"ELE_1": null, "FIXME_1": null, "NAME_1": null, "comment": null, "descriptio": null, "ele": null, "fixme": null, "name": "Huayllabamba", "note": null, "osm_id": 2234807525, "place": "village", "population": null, "source": "MTC"}, "geometry": {"type": "Point", "coordinates": [-72.0645932, -13.3381165]}}, {"id": "188", "type": "Feature", "properties": {"ELE_1": null, "FIXME_1": null, "NAME_1": null, "comment": null, "descriptio": null, "ele": null, "fixme": null, "name": "Accha", "note": null, "osm_id": 2314230985, "place": "town", "population": null, "source": null}, "geometry": {"type": "Point", "coordinates": [-71.8315418, -13.971146]}}, {"id": "189", "type": "Feature", "properties": {"ELE_1": null, "FIXME_1": null, "NAME_1": null, "comment": null, "descriptio": null, "ele": null, "fixme": null, "name": "Paruro", "note": null, "osm_id": 2314231210, "place": "town", "population": null, "source": "bing; MTC"}, "geometry": {"type": "Point", "coordinates": [-71.8474048, -13.761311]}}, {"id": "193", "type": "Feature", "properties": {"ELE_1": null, "FIXME_1": null, "NAME_1": null, "comment": null, "descriptio": null, "ele": 3215.0, "fixme": null, "name": "Acomayo", "note": null, "osm_id": 2317137705, "place": "town", "population": null, "source": "bing; MTC"}, "geometry": {"type": "Point", "coordinates": [-71.6834556, -13.9192017]}}, {"id": "195", "type": "Feature", "properties": {"ELE_1": null, "FIXME_1": null, "NAME_1": null, "comment": null, "descriptio": null, "ele": null, "fixme": null, "name": "Pitumarca", "note": null, "osm_id": 2318482351, "place": "village", "population": null, "source": null}, "geometry": {"type": "Point", "coordinates": [-71.6421455, -13.948169]}}, {"id": "196", "type": "Feature", "properties": {"ELE_1": null, "FIXME_1": null, "NAME_1": null, "comment": null, "descriptio": null, "ele": null, "fixme": null, "name": "Porvenir", "note": null, "osm_id": 2318531854, "place": "hamlet", "population": null, "source": null}, "geometry": {"type": "Point", "coordinates": [-71.3090151, -14.4079996]}}, {"id": "209", "type": "Feature", "properties": {"ELE_1": null, "FIXME_1": null, "NAME_1": null, "comment": null, "descriptio": null, "ele": null, "fixme": null, "name": "Pichigua", "note": null, "osm_id": 2320341783, "place": "village", "population": null, "source": null}, "geometry": {"type": "Point", "coordinates": [-71.547646, -13.4539564]}}, {"id": "230", "type": "Feature", "properties": {"ELE_1": null, "FIXME_1": null, "NAME_1": null, "comment": null, "descriptio": null, "ele": null, "fixme": null, "name": "Munaypata", "note": null, "osm_id": 2348600578, "place": "village", "population": null, "source": null}, "geometry": {"type": "Point", "coordinates": [-72.1482838, -13.427823]}}, {"id": "233", "type": "Feature", "properties": {"ELE_1": null, "FIXME_1": null, "NAME_1": null, "comment": null, "descriptio": null, "ele": null, "fixme": null, "name": "Ttio", "note": null, "osm_id": 2349410224, "place": "hamlet", "population": null, "source": null}, "geometry": {"type": "Point", "coordinates": [-71.7982913, -13.2440971]}}, {"id": "251", "type": "Feature", "properties": {"ELE_1": null, "FIXME_1": null, "NAME_1": null, "comment": null, "descriptio": null, "ele": null, "fixme": null, "name": "Paucarpata", "note": null, "osm_id": 2357164933, "place": "hamlet", "population": null, "source": null}, "geometry": {"type": "Point", "coordinates": [-71.9950994, -13.6654163]}}, {"id": "257", "type": "Feature", "properties": {"ELE_1": null, "FIXME_1": null, "NAME_1": null, "comment": null, "descriptio": null, "ele": 1132.0, "fixme": null, "name": "Quebrada Honda", "note": null, "osm_id": 2360500514, "place": "town", "population": null, "source": "http://www.mtc.gob.pe/estadisticas/estadistica/mapas/TRANSPORTES/VIAL/08_CUSCO_VIAL.pdf"}, "geometry": {"type": "Point", "coordinates": [-72.2775948, -12.6819116]}}, {"id": "276", "type": "Feature", "properties": {"ELE_1": null, "FIXME_1": null, "NAME_1": null, "comment": null, "descriptio": null, "ele": null, "fixme": null, "name": "Monterrico", "note": null, "osm_id": 2361392397, "place": "village", "population": null, "source": "http://www.mtc.gob.pe/estadisticas/estadistica/mapas/TRANSPORTES/VIAL/05_AYACUCHO_VIAL.pdf"}, "geometry": {"type": "Point", "coordinates": [-73.5922783, -12.8247685]}}, {"id": "286", "type": "Feature", "properties": {"ELE_1": null, "FIXME_1": null, "NAME_1": null, "comment": null, "descriptio": null, "ele": null, "fixme": null, "name": "Pichigua", "note": null, "osm_id": 2367583930, "place": "village", "population": null, "source": "http://www.mtc.gob.pe/estadisticas/estadistica/mapas/TRANSPORTES/VIAL/08_CUSCO_VIAL.pdf"}, "geometry": {"type": "Point", "coordinates": [-71.4063142, -14.6777982]}}, {"id": "288", "type": "Feature", "properties": {"ELE_1": null, "FIXME_1": null, "NAME_1": null, "comment": null, "descriptio": null, "ele": 3422.0, "fixme": null, "name": "Anta", "note": null, "osm_id": 2367668493, "place": "town", "population": null, "source": "bing; MTC"}, "geometry": {"type": "Point", "coordinates": [-72.1487471, -13.4715992]}}, {"id": "295", "type": "Feature", "properties": {"ELE_1": null, "FIXME_1": null, "NAME_1": null, "comment": null, "descriptio": null, "ele": 3379.0, "fixme": null, "name": "Pucyura", "note": null, "osm_id": 2370630303, "place": "village", "population": null, "source": "http://www.mtc.gob.pe/estadisticas/estadistica/mapas/TRANSPORTES/VIAL/08_CUSCO_VIAL.pdf"}, "geometry": {"type": "Point", "coordinates": [-72.1113614, -13.4793288]}}, {"id": "300", "type": "Feature", "properties": {"ELE_1": null, "FIXME_1": null, "NAME_1": null, "comment": null, "descriptio": null, "ele": null, "fixme": null, "name": "Combapata", "note": null, "osm_id": 2377067616, "place": "village", "population": null, "source": null}, "geometry": {"type": "Point", "coordinates": [-72.3059645, -12.6460037]}}, {"id": "302", "type": "Feature", "properties": {"ELE_1": null, "FIXME_1": null, "NAME_1": null, "comment": null, "descriptio": null, "ele": null, "fixme": null, "name": "Huambutio", "note": null, "osm_id": 2377095148, "place": "village", "population": null, "source": "http://www.mtc.gob.pe/estadisticas/estadistica/mapas/TRANSPORTES/VIAL/08_CUSCO_VIAL.pdf"}, "geometry": {"type": "Point", "coordinates": [-71.7244937, -13.597717]}}, {"id": "306", "type": "Feature", "properties": {"ELE_1": null, "FIXME_1": null, "NAME_1": null, "comment": null, "descriptio": null, "ele": null, "fixme": null, "name": "Anchihuay", "note": null, "osm_id": 2378352749, "place": "village", "population": null, "source": "bing"}, "geometry": {"type": "Point", "coordinates": [-72.7313739, -12.5050812]}}, {"id": "308", "type": "Feature", "properties": {"ELE_1": null, "FIXME_1": null, "NAME_1": null, "comment": null, "descriptio": null, "ele": null, "fixme": null, "name": "Pitumarca", "note": null, "osm_id": 2642792726, "place": "town", "population": null, "source": null}, "geometry": {"type": "Point", "coordinates": [-71.4173328, -13.9803842]}}, {"id": "316", "type": "Feature", "properties": {"ELE_1": null, "FIXME_1": null, "NAME_1": null, "comment": null, "descriptio": null, "ele": null, "fixme": null, "name": "Naranjal", "note": null, "osm_id": 2812088372, "place": "village", "population": null, "source": null}, "geometry": {"type": "Point", "coordinates": [-73.281017, -13.3278245]}}, {"id": "319", "type": "Feature", "properties": {"ELE_1": null, "FIXME_1": null, "NAME_1": null, "comment": null, "descriptio": null, "ele": null, "fixme": null, "name": "San Martin", "note": null, "osm_id": 2812088375, "place": "village", "population": null, "source": null}, "geometry": {"type": "Point", "coordinates": [-73.282164, -13.312471]}}, {"id": "335", "type": "Feature", "properties": {"ELE_1": null, "FIXME_1": null, "NAME_1": null, "comment": null, "descriptio": null, "ele": null, "fixme": null, "name": "Santa Elena", "note": null, "osm_id": 2963564918, "place": "hamlet", "population": null, "source": "local knowledge"}, "geometry": {"type": "Point", "coordinates": [-72.9847872, -12.6318376]}}, {"id": "340", "type": "Feature", "properties": {"ELE_1": null, "FIXME_1": null, "NAME_1": null, "comment": null, "descriptio": null, "ele": null, "fixme": null, "name": "Yavero Chico", "note": null, "osm_id": 2965485316, "place": "hamlet", "population": null, "source": "MapBox; http://www.mtc.gob.pe/portal/transportes/red_vial/mapas_redvial.htm"}, "geometry": {"type": "Point", "coordinates": [-72.5075867, -12.5192772]}}, {"id": "343", "type": "Feature", "properties": {"ELE_1": null, "FIXME_1": null, "NAME_1": null, "comment": null, "descriptio": null, "ele": null, "fixme": null, "name": "Tupac Amaru", "note": null, "osm_id": 2965550086, "place": "hamlet", "population": null, "source": "MapBox; http://www.mtc.gob.pe/portal/transportes/red_vial/mapas_redvial.htm"}, "geometry": {"type": "Point", "coordinates": [-72.5004931, -12.4254774]}}, {"id": "356", "type": "Feature", "properties": {"ELE_1": null, "FIXME_1": null, "NAME_1": null, "comment": null, "descriptio": null, "ele": null, "fixme": null, "name": "Cruzpata", "note": null, "osm_id": 2973182960, "place": "village", "population": null, "source": null}, "geometry": {"type": "Point", "coordinates": [-72.1169342, -13.3836909]}}, {"id": "368", "type": "Feature", "properties": {"ELE_1": null, "FIXME_1": null, "NAME_1": null, "comment": null, "descriptio": null, "ele": null, "fixme": null, "name": "Huaynapata", "note": null, "osm_id": 2985246373, "place": "hamlet", "population": null, "source": null}, "geometry": {"type": "Point", "coordinates": [-71.4804205, -13.4507977]}}, {"id": "377", "type": "Feature", "properties": {"ELE_1": null, "FIXME_1": null, "NAME_1": null, "comment": null, "descriptio": null, "ele": null, "fixme": null, "name": "Limonchayoc", "note": null, "osm_id": 2988653935, "place": "hamlet", "population": null, "source": "MapBox; MTC"}, "geometry": {"type": "Point", "coordinates": [-72.5121034, -12.6307657]}}, {"id": "379", "type": "Feature", "properties": {"ELE_1": null, "FIXME_1": null, "NAME_1": null, "comment": null, "descriptio": null, "ele": null, "fixme": null, "name": "Paucarpata", "note": null, "osm_id": 2988663363, "place": "hamlet", "population": null, "source": "MTC"}, "geometry": {"type": "Point", "coordinates": [-72.0130906, -13.0124348]}}, {"id": "385", "type": "Feature", "properties": {"ELE_1": null, "FIXME_1": null, "NAME_1": null, "comment": null, "descriptio": null, "ele": null, "fixme": null, "name": "Surimana", "note": null, "osm_id": 2990047719, "place": "village", "population": null, "source": "MTC"}, "geometry": {"type": "Point", "coordinates": [-71.5749956, -14.153459]}}, {"id": "386", "type": "Feature", "properties": {"ELE_1": null, "FIXME_1": null, "NAME_1": null, "comment": null, "descriptio": null, "ele": null, "fixme": null, "name": "Totora", "note": null, "osm_id": 2990047720, "place": "village", "population": null, "source": "MTC"}, "geometry": {"type": "Point", "coordinates": [-71.5813587, -14.1674019]}}, {"id": "388", "type": "Feature", "properties": {"ELE_1": null, "FIXME_1": null, "NAME_1": null, "comment": null, "descriptio": null, "ele": null, "fixme": null, "name": "Cota\u00f1a", "note": null, "osm_id": 2990137375, "place": "village", "population": null, "source": "MTC"}, "geometry": {"type": "Point", "coordinates": [-71.4899792, -14.1938656]}}, {"id": "391", "type": "Feature", "properties": {"ELE_1": null, "FIXME_1": null, "NAME_1": null, "comment": null, "descriptio": null, "ele": null, "fixme": null, "name": "San Juan", "note": null, "osm_id": 2991143949, "place": "village", "population": null, "source": null}, "geometry": {"type": "Point", "coordinates": [-72.0740654, -13.2823079]}}, {"id": "393", "type": "Feature", "properties": {"ELE_1": null, "FIXME_1": null, "NAME_1": null, "comment": null, "descriptio": null, "ele": null, "fixme": null, "name": "Chanca", "note": null, "osm_id": 3001431768, "place": "village", "population": null, "source": "MTC"}, "geometry": {"type": "Point", "coordinates": [-72.0723635, -13.6507817]}}, {"id": "400", "type": "Feature", "properties": {"ELE_1": null, "FIXME_1": null, "NAME_1": null, "comment": null, "descriptio": null, "ele": null, "fixme": null, "name": "Tucsa", "note": null, "osm_id": 3005640624, "place": "hamlet", "population": null, "source": "bing; MTC"}, "geometry": {"type": "Point", "coordinates": [-71.4392896, -14.4107398]}}, {"id": "422", "type": "Feature", "properties": {"ELE_1": null, "FIXME_1": null, "NAME_1": null, "comment": null, "descriptio": null, "ele": null, "fixme": null, "name": "Yanahuara", "note": null, "osm_id": 3025596427, "place": "village", "population": null, "source": null}, "geometry": {"type": "Point", "coordinates": [-72.1862775, -13.2766857]}}, {"id": "423", "type": "Feature", "properties": {"ELE_1": null, "FIXME_1": null, "NAME_1": null, "comment": null, "descriptio": null, "ele": 840.0, "fixme": null, "name": "Porvenir", "note": null, "osm_id": 3033423007, "place": "village", "population": 250.0, "source": "gps;DEVIDA"}, "geometry": {"type": "Point", "coordinates": [-73.5320106, -12.996277]}}, {"id": "424", "type": "Feature", "properties": {"ELE_1": null, "FIXME_1": null, "NAME_1": null, "comment": null, "descriptio": null, "ele": null, "fixme": null, "name": "Agua Dulce", "note": null, "osm_id": 3033423154, "place": "village", "population": null, "source": null}, "geometry": {"type": "Point", "coordinates": [-73.5306373, -12.9816619]}}, {"id": "426", "type": "Feature", "properties": {"ELE_1": null, "FIXME_1": null, "NAME_1": null, "comment": null, "descriptio": null, "ele": 724.0, "fixme": null, "name": "Limatambo", "note": null, "osm_id": 3033638704, "place": "hamlet", "population": 750.0, "source": "gps;DEVIDA"}, "geometry": {"type": "Point", "coordinates": [-73.5089226, -12.9587645]}}, {"id": "428", "type": "Feature", "properties": {"ELE_1": null, "FIXME_1": null, "NAME_1": null, "comment": null, "descriptio": null, "ele": null, "fixme": null, "name": "Pampallacta", "note": null, "osm_id": 3035757085, "place": "hamlet", "population": null, "source": null}, "geometry": {"type": "Point", "coordinates": [-72.3015319, -13.2134648]}}, {"id": "430", "type": "Feature", "properties": {"ELE_1": null, "FIXME_1": null, "NAME_1": null, "comment": null, "descriptio": null, "ele": null, "fixme": null, "name": "Colpani", "note": null, "osm_id": 3035769196, "place": "hamlet", "population": null, "source": null}, "geometry": {"type": "Point", "coordinates": [-72.2908889, -13.1861241]}}, {"id": "449", "type": "Feature", "properties": {"ELE_1": null, "FIXME_1": null, "NAME_1": null, "comment": null, "descriptio": null, "ele": null, "fixme": null, "name": "Yanacancha", "note": null, "osm_id": 3057762591, "place": "hamlet", "population": null, "source": null}, "geometry": {"type": "Point", "coordinates": [-71.1583204, -13.6297834]}}, {"id": "452", "type": "Feature", "properties": {"ELE_1": null, "FIXME_1": null, "NAME_1": null, "comment": null, "descriptio": null, "ele": null, "fixme": null, "name": "Phinaya", "note": null, "osm_id": 3058016479, "place": "village", "population": null, "source": null}, "geometry": {"type": "Point", "coordinates": [-70.9734646, -13.8965638]}}, {"id": "464", "type": "Feature", "properties": {"ELE_1": null, "FIXME_1": null, "NAME_1": null, "comment": null, "descriptio": null, "ele": null, "fixme": null, "name": "Curca", "note": null, "osm_id": 3079667235, "place": "hamlet", "population": null, "source": null}, "geometry": {"type": "Point", "coordinates": [-72.0850525, -14.1425712]}}, {"id": "469", "type": "Feature", "properties": {"ELE_1": null, "FIXME_1": null, "NAME_1": null, "comment": null, "descriptio": null, "ele": null, "fixme": null, "name": "Sayhua", "note": null, "osm_id": 3083349383, "place": "hamlet", "population": null, "source": "bing"}, "geometry": {"type": "Point", "coordinates": [-71.6021538, -14.1418131]}}, {"id": "470", "type": "Feature", "properties": {"ELE_1": null, "FIXME_1": null, "NAME_1": null, "comment": null, "descriptio": null, "ele": null, "fixme": null, "name": "San Juan", "note": null, "osm_id": 3083349430, "place": "village", "population": null, "source": "bing; MTC"}, "geometry": {"type": "Point", "coordinates": [-71.6646538, -14.1153269]}}, {"id": "502", "type": "Feature", "properties": {"ELE_1": null, "FIXME_1": null, "NAME_1": null, "comment": null, "descriptio": null, "ele": null, "fixme": null, "name": "Ninamarca", "note": null, "osm_id": 3100482683, "place": "village", "population": null, "source": "bing; MTC"}, "geometry": {"type": "Point", "coordinates": [-71.5954767, -13.4882837]}}, {"id": "503", "type": "Feature", "properties": {"ELE_1": null, "FIXME_1": null, "NAME_1": null, "comment": null, "descriptio": null, "ele": null, "fixme": null, "name": "Tiracanchi", "note": null, "osm_id": 3100484465, "place": "village", "population": null, "source": "bing"}, "geometry": {"type": "Point", "coordinates": [-71.7098075, -13.4416171]}}, {"id": "504", "type": "Feature", "properties": {"ELE_1": null, "FIXME_1": null, "NAME_1": null, "comment": null, "descriptio": null, "ele": null, "fixme": null, "name": "Tiracanchi", "note": null, "osm_id": 3100484477, "place": "village", "population": null, "source": "bing"}, "geometry": {"type": "Point", "coordinates": [-71.6950828, -13.4418723]}}, {"id": "506", "type": "Feature", "properties": {"ELE_1": null, "FIXME_1": null, "NAME_1": null, "comment": null, "descriptio": null, "ele": null, "fixme": null, "name": "Accha", "note": null, "osm_id": 3100484868, "place": "hamlet", "population": null, "source": "bing"}, "geometry": {"type": "Point", "coordinates": [-71.6744474, -13.4457804]}}, {"id": "510", "type": "Feature", "properties": {"ELE_1": null, "FIXME_1": "name", "NAME_1": null, "comment": null, "descriptio": null, "ele": null, "fixme": null, "name": "Ninamarca", "note": null, "osm_id": 3100788644, "place": "village", "population": null, "source": "bing"}, "geometry": {"type": "Point", "coordinates": [-71.6204425, -13.3876071]}}, {"id": "516", "type": "Feature", "properties": {"ELE_1": null, "FIXME_1": null, "NAME_1": null, "comment": null, "descriptio": null, "ele": null, "fixme": null, "name": "Chanca", "note": null, "osm_id": 3101784229, "place": "hamlet", "population": null, "source": null}, "geometry": {"type": "Point", "coordinates": [-71.677692, -13.7148414]}}, {"id": "522", "type": "Feature", "properties": {"ELE_1": null, "FIXME_1": null, "NAME_1": null, "comment": null, "descriptio": null, "ele": null, "fixme": null, "name": "Totora", "note": null, "osm_id": 3121102136, "place": "village", "population": null, "source": "bing; MTC"}, "geometry": {"type": "Point", "coordinates": [-72.1064759, -13.5728401]}}, {"id": "525", "type": "Feature", "properties": {"ELE_1": null, "FIXME_1": null, "NAME_1": null, "comment": null, "descriptio": null, "ele": null, "fixme": null, "name": "Amaybamba", "note": null, "osm_id": 3122807135, "place": "village", "population": null, "source": "bing"}, "geometry": {"type": "Point", "coordinates": [-73.2645271, -13.2888929]}}, {"id": "531", "type": "Feature", "properties": {"ELE_1": null, "FIXME_1": null, "NAME_1": null, "comment": null, "descriptio": null, "ele": null, "fixme": null, "name": "Miraflores", "note": null, "osm_id": 3142058818, "place": "hamlet", "population": null, "source": null}, "geometry": {"type": "Point", "coordinates": [-73.7888889, -12.6306116]}}, {"id": "532", "type": "Feature", "properties": {"ELE_1": null, "FIXME_1": null, "NAME_1": null, "comment": null, "descriptio": null, "ele": null, "fixme": null, "name": "Anchihuay", "note": null, "osm_id": 3148947553, "place": "village", "population": null, "source": null}, "geometry": {"type": "Point", "coordinates": [-73.581673, -12.8633126]}}, {"id": "534", "type": "Feature", "properties": {"ELE_1": null, "FIXME_1": null, "NAME_1": null, "comment": null, "descriptio": null, "ele": null, "fixme": null, "name": "Urco", "note": null, "osm_id": 3151852370, "place": "hamlet", "population": null, "source": null}, "geometry": {"type": "Point", "coordinates": [-71.9710918, -13.3248813]}}, {"id": "535", "type": "Feature", "properties": {"ELE_1": null, "FIXME_1": null, "NAME_1": null, "comment": null, "descriptio": null, "ele": null, "fixme": null, "name": "Yanahuara", "note": null, "osm_id": 3151852373, "place": "hamlet", "population": null, "source": null}, "geometry": {"type": "Point", "coordinates": [-72.1742147, -13.2749512]}}, {"id": "542", "type": "Feature", "properties": {"ELE_1": null, "FIXME_1": null, "NAME_1": null, "comment": null, "descriptio": null, "ele": null, "fixme": null, "name": "Mollebamba", "note": null, "osm_id": 3161798761, "place": "village", "population": null, "source": null}, "geometry": {"type": "Point", "coordinates": [-71.6031471, -13.7287021]}}, {"id": "578", "type": "Feature", "properties": {"ELE_1": null, "FIXME_1": null, "NAME_1": null, "comment": null, "descriptio": null, "ele": null, "fixme": null, "name": "San Martin", "note": null, "osm_id": 3484813126, "place": "village", "population": null, "source": "bing"}, "geometry": {"type": "Point", "coordinates": [-72.4096764, -12.4347011]}}, {"id": "582", "type": "Feature", "properties": {"ELE_1": null, "FIXME_1": null, "NAME_1": null, "comment": null, "descriptio": null, "ele": null, "fixme": null, "name": "San Lorenzo", "note": null, "osm_id": 3485284669, "place": "village", "population": null, "source": "bing"}, "geometry": {"type": "Point", "coordinates": [-72.3902999, -12.6742212]}}, {"id": "584", "type": "Feature", "properties": {"ELE_1": null, "FIXME_1": null, "NAME_1": null, "comment": null, "descriptio": null, "ele": null, "fixme": null, "name": "Santa Elena", "note": null, "osm_id": 3490844737, "place": "hamlet", "population": null, "source": "bing"}, "geometry": {"type": "Point", "coordinates": [-72.3043286, -12.7598035]}}, {"id": "612", "type": "Feature", "properties": {"ELE_1": null, "FIXME_1": null, "NAME_1": null, "comment": null, "descriptio": null, "ele": null, "fixme": null, "name": "Hualla", "note": null, "osm_id": 3500937555, "place": "hamlet", "population": null, "source": null}, "geometry": {"type": "Point", "coordinates": [-71.1794072, -15.1537726]}}, {"id": "613", "type": "Feature", "properties": {"ELE_1": null, "FIXME_1": null, "NAME_1": null, "comment": null, "descriptio": null, "ele": null, "fixme": null, "name": "Huancane", "note": null, "osm_id": 3500937559, "place": "hamlet", "population": null, "source": null}, "geometry": {"type": "Point", "coordinates": [-71.4807162, -14.9866399]}}]}